{
"type": "FeatureCollection",
"crs": { "type": "name", "properties": { "name": "urn:ogc:def:crs:OGC:1.3:CRS84" } },
                                                                                
"features": [
{ "type": "Feature", "properties": { "id": 1001877, "frs_id": 110000602045.000000, "name": "ALCOA INC - WARRICK OPERATIONS", "city": "NEWBURGH", "st": "IN", "zip": 47629, "address": null, "county": "Warrick", "lat": 37.920000, "lon": -87.330000, "Primary NA": 331312, "Industry T": "C,D,F", "Industry_1": "Metals,Power Plants", "total_emissions": 6608671.900000, "CO2 emissi": 6486141.300000, "Methane (C": 17412.500000, "Nitrous Ox": 30136.100000 }, "geometry": { "type": "Point", "coordinates": [ -87.33, 37.92 ] } },
{ "type": "Feature", "properties": { "id": 1001055, "frs_id": 110000428369.000000, "name": "Antelope Valley", "city": "BEULAH", "st": "ND", "zip": 58523, "address": "HWY 200", "county": "Mercer", "lat": 47.370000, "lon": -101.840000, "Primary NA": 221112, "Industry T": "D", "Industry_1": "Power Plants", "total_emissions": 6939207.600000, "CO2 emissi": 6887447.900000, "Methane (C": 18931.800000, "Nitrous Ox": 32828.000000 }, "geometry": { "type": "Point", "coordinates": [ -101.84, 47.37 ] } },
{ "type": "Feature", "properties": { "id": 1007302, "frs_id": 110011697075.000000, "name": "Baldwin Energy Complex", "city": "BALDWIN", "st": "IL", "zip": 62217, "address": "10901 BALDWIN RD", "county": "Randolph", "lat": 38.210000, "lon": -89.860000, "Primary NA": 221112, "Industry T": "C,D", "Industry_1": "Power Plants", "total_emissions": 12259248.800000, "CO2 emissi": 12163235.800000, "Methane (C": 35117.000000, "Nitrous Ox": 60896.000000 }, "geometry": { "type": "Point", "coordinates": [ -89.86, 38.21 ] } },
{ "type": "Feature", "properties": { "id": 1001412, "frs_id": 110000741270.000000, "name": "Barry", "city": "BUCKS", "st": "AL", "zip": 36512, "address": "15300 Highway 43 North", "county": "Mobile", "lat": 31.000000, "lon": -88.030000, "Primary NA": 221112, "Industry T": "C,D,PP", "Industry_1": "Power Plants,Suppliers of CO2", "total_emissions": 8453710.700000, "CO2 emissi": 8407353.800000, "Methane (C": 17237.300000, "Nitrous Ox": 29119.700000 }, "geometry": { "type": "Point", "coordinates": [ -88.03, 31.0 ] } },
{ "type": "Feature", "properties": { "id": 1001187, "frs_id": 110000604141.000000, "name": "Belews Creek", "city": "BELEWS CREEK", "st": "NC", "zip": 27052, "address": "3195 PINE HALL ROAD", "county": "Stokes", "lat": 36.280000, "lon": -80.060000, "Primary NA": 221112, "Industry T": "C,D", "Industry_1": "Power Plants", "total_emissions": 10940291.500000, "CO2 emissi": 10852627.400000, "Methane (C": 32066.300000, "Nitrous Ox": 55597.900000 }, "geometry": { "type": "Point", "coordinates": [ -80.06, 36.28 ] } },
{ "type": "Feature", "properties": { "id": 1001011, "frs_id": 110010306720.000000, "name": "Belle River", "city": "SAINT CLAIR HAVEN", "st": "MI", "zip": 48054, "address": "E CHINA TOWNSHIP", "county": "St. Clair", "lat": 42.790000, "lon": -82.530000, "Primary NA": 221112, "Industry T": "C,D", "Industry_1": "Power Plants", "total_emissions": 7843071.000000, "CO2 emissi": 7784094.400000, "Methane (C": 21585.000000, "Nitrous Ox": 37391.600000 }, "geometry": { "type": "Point", "coordinates": [ -82.53, 42.79 ] } },
{ "type": "Feature", "properties": { "id": 1001492, "frs_id": 110008319505.000000, "name": "Big Bend", "city": "APOLLO BEACH", "st": "FL", "zip": 33572, "address": "13031 WYANDOTTE ROAD", "county": "Hillsborough", "lat": 27.800000, "lon": -82.400000, "Primary NA": 221112, "Industry T": "D", "Industry_1": "Power Plants", "total_emissions": 10032730.300000, "CO2 emissi": 9957643.200000, "Methane (C": 27454.500000, "Nitrous Ox": 47632.600000 }, "geometry": { "type": "Point", "coordinates": [ -82.4, 27.8 ] } },
{ "type": "Feature", "properties": { "id": 1007500, "frs_id": 110000598988.000000, "name": "Big Brown", "city": "FAIRFIELD", "st": "TX", "zip": 75840, "address": null, "county": "Freestone", "lat": 31.750000, "lon": -96.150000, "Primary NA": 221112, "Industry T": "C,D", "Industry_1": "Power Plants", "total_emissions": 8691157.500000, "CO2 emissi": 8647376.400000, "Methane (C": 2197.000000, "Nitrous Ox": 41584.100000 }, "geometry": { "type": "Point", "coordinates": [ -96.15, 31.75 ] } },
{ "type": "Feature", "properties": { "id": 1001016, "frs_id": 110000449792.000000, "name": "Big Cajun 2", "city": "NEW ROADS", "st": "LA", "zip": 70760, "address": "10431 CAJUN 2 ROAD   HWY 981", "county": "Pointe Coupee", "lat": 30.730000, "lon": -91.370000, "Primary NA": 221112, "Industry T": "D", "Industry_1": "Power Plants", "total_emissions": 10861384.300000, "CO2 emissi": 10776235.900000, "Methane (C": 31146.300000, "Nitrous Ox": 54002.100000 }, "geometry": { "type": "Point", "coordinates": [ -91.37, 30.73 ] } },
{ "type": "Feature", "properties": { "id": 1005585, "frs_id": 110000463784.000000, "name": "Blanchard Refining Company LLC", "city": "TEXAS CITY", "st": "TX", "zip": 77592, "address": "2401 5TH AVE S IN TEXAS CITY", "county": "Galveston", "lat": 29.370000, "lon": -94.930000, "Primary NA": 324110, "Industry T": "C,D,MM-REF,Y", "Industry_1": "Petroleum Product Suppliers,Power Plants,Refineries", "total_emissions": 7824857.500000, "CO2 emissi": 7762755.300000, "Methane (C": 43207.500000, "Nitrous Ox": 18894.700000 }, "geometry": { "type": "Point", "coordinates": [ -94.93, 29.37 ] } },
{ "type": "Feature", "properties": { "id": 1000687, "frs_id": 110041028492.000000, "name": "Boswell Energy Center", "city": "COHASSET", "st": "MN", "zip": 55721, "address": "1200 NW 3RD ST", "county": "Itasca", "lat": 47.260000, "lon": -93.650000, "Primary NA": 221112, "Industry T": "C,D", "Industry_1": "Power Plants", "total_emissions": 8274307.400000, "CO2 emissi": 8212884.400000, "Methane (C": 22468.800000, "Nitrous Ox": 38954.300000 }, "geometry": { "type": "Point", "coordinates": [ -93.65, 47.26 ] } },
{ "type": "Feature", "properties": { "id": 1001505, "frs_id": 110000356356.000000, "name": "Bowen", "city": "CARTERSVILLE", "st": "GA", "zip": 30120, "address": "317 COVERED BRIDGE ROAD SW", "county": "Bartow", "lat": 34.130000, "lon": -84.920000, "Primary NA": 221112, "Industry T": "C,D", "Industry_1": "Power Plants", "total_emissions": 12120705.100000, "CO2 emissi": 12023730.800000, "Methane (C": 35466.500000, "Nitrous Ox": 61507.800000 }, "geometry": { "type": "Point", "coordinates": [ -84.92, 34.13 ] } },
{ "type": "Feature", "properties": { "id": 1001041, "frs_id": 110000450627.000000, "name": "Brame Energy Center", "city": "LENA", "st": "LA", "zip": 71447, "address": "275 RODEMACHER RD", "county": "Rapides", "lat": 31.410000, "lon": -92.720000, "Primary NA": 221112, "Industry T": "D", "Industry_1": "Power Plants", "total_emissions": 7645035.700000, "CO2 emissi": 7628309.400000, "Methane (C": 994.300000, "Nitrous Ox": 15732.000000 }, "geometry": { "type": "Point", "coordinates": [ -92.72, 31.41 ] } },
{ "type": "Feature", "properties": { "id": 1006909, "frs_id": 110056969721.000000, "name": "Bruce Mansfield", "city": "SHIPPINGPORT", "st": "PA", "zip": 15077, "address": "128 FERRY HILL ROAD", "county": "Beaver", "lat": 40.630000, "lon": -80.420000, "Primary NA": 221112, "Industry T": "C,D", "Industry_1": "Power Plants", "total_emissions": 16158662.200000, "CO2 emissi": 16072921.800000, "Methane (C": 4278.500000, "Nitrous Ox": 81461.900000 }, "geometry": { "type": "Point", "coordinates": [ -80.42, 40.63 ] } },
{ "type": "Feature", "properties": { "id": 1000839, "frs_id": 110000605426.000000, "name": "Cardinal", "city": "BRILLIANT", "st": "OH", "zip": 43913, "address": "306 COUNTY ROAD 7 EAST", "county": "Jefferson", "lat": 40.250000, "lon": -80.650000, "Primary NA": 221112, "Industry T": "C,D", "Industry_1": "Power Plants", "total_emissions": 9947851.600000, "CO2 emissi": 9870069.200000, "Methane (C": 28441.000000, "Nitrous Ox": 49341.400000 }, "geometry": { "type": "Point", "coordinates": [ -80.65, 40.25 ] } },
{ "type": "Feature", "properties": { "id": 1007310, "frs_id": 110000490665.000000, "name": "Centralia", "city": "CENTRALIA", "st": "WA", "zip": 98531, "address": "913 BIG HANAFORD RD", "county": "Lewis", "lat": 46.760000, "lon": -122.860000, "Primary NA": 221112, "Industry T": "C,D", "Industry_1": "Power Plants", "total_emissions": 7547845.500000, "CO2 emissi": 7488677.400000, "Methane (C": 21643.000000, "Nitrous Ox": 37525.100000 }, "geometry": { "type": "Point", "coordinates": [ -122.86, 46.76 ] } },
{ "type": "Feature", "properties": { "id": 1000964, "frs_id": 110000342530.000000, "name": "Chesterfield Power Station", "city": "CHESTER", "st": "VA", "zip": 23831, "address": "500 COXENDALE ROAD", "county": "Chesterfield", "lat": 37.380000, "lon": -77.380000, "Primary NA": 221112, "Industry T": "C,D", "Industry_1": "Power Plants", "total_emissions": 6993706.900000, "CO2 emissi": 6947279.800000, "Methane (C": 17092.000000, "Nitrous Ox": 29335.100000 }, "geometry": { "type": "Point", "coordinates": [ -77.38, 37.38 ] } },
{ "type": "Feature", "properties": { "id": 1001421, "frs_id": 110017206192.000000, "name": "Cholla", "city": "JOSEPH CITY", "st": "AZ", "zip": 86032, "address": "4801 FRONTAGE ROAD", "county": "Navajo", "lat": 34.940000, "lon": -110.300000, "Primary NA": 221112, "Industry T": "D", "Industry_1": "Power Plants", "total_emissions": 7539188.000000, "CO2 emissi": 7478781.200000, "Methane (C": 22096.300000, "Nitrous Ox": 38310.600000 }, "geometry": { "type": "Point", "coordinates": [ -110.3, 34.94 ] } },
{ "type": "Feature", "properties": { "id": 1007429, "frs_id": 110000494563.000000, "name": "Coal Creek", "city": "UNDERWOOD", "st": "ND", "zip": 58576, "address": "2875 3RD ST SW", "county": "McLean", "lat": 47.380000, "lon": -101.160000, "Primary NA": 221112, "Industry T": "C,D,II", "Industry_1": "Power Plants,Waste", "total_emissions": 9219664.100000, "CO2 emissi": 9149962.400000, "Methane (C": 25543.800000, "Nitrous Ox": 44157.900000 }, "geometry": { "type": "Point", "coordinates": [ -101.16, 47.38 ] } },
{ "type": "Feature", "properties": { "id": 1001020, "frs_id": 110041982520.000000, "name": "Colstrip", "city": "COLSTRIP", "st": "MT", "zip": 59323, "address": "1 WAREHOUSE ROAD", "county": "Rosebud", "lat": 45.980000, "lon": -106.660000, "Primary NA": 221112, "Industry T": "D", "Industry_1": "Power Plants", "total_emissions": 13679348.100000, "CO2 emissi": 13577421.200000, "Methane (C": 37283.000000, "Nitrous Ox": 64643.900000 }, "geometry": { "type": "Point", "coordinates": [ -106.66, 45.98 ] } },
{ "type": "Feature", "properties": { "id": 1001186, "frs_id": 110000420385.000000, "name": "Columbia", "city": "PARDEEVILLE", "st": "WI", "zip": 53954, "address": "W8375 MURRAY RD", "county": "Columbia", "lat": 43.490000, "lon": -89.420000, "Primary NA": 221112, "Industry T": "C,D", "Industry_1": "Power Plants", "total_emissions": 7647055.800000, "CO2 emissi": 7606957.400000, "Methane (C": 2003.300000, "Nitrous Ox": 38095.100000 }, "geometry": { "type": "Point", "coordinates": [ -89.42, 43.49 ] } },
{ "type": "Feature", "properties": { "id": 1001462, "frs_id": 110000467851.000000, "name": "Comanche (470)", "city": "PUEBLO", "st": "CO", "zip": 81006, "address": "2005 LIME RD", "county": "Pueblo", "lat": 38.210000, "lon": -104.580000, "Primary NA": 221112, "Industry T": "C,D", "Industry_1": "Power Plants", "total_emissions": 8678387.800000, "CO2 emissi": 8633194.100000, "Methane (C": 2282.000000, "Nitrous Ox": 42911.700000 }, "geometry": { "type": "Point", "coordinates": [ -104.58, 38.21 ] } },
{ "type": "Feature", "properties": { "id": 1000877, "frs_id": 110000538801.000000, "name": "Conemaugh", "city": "NEW FLORENCE", "st": "PA", "zip": 15944, "address": "1442 POWER PLANT ROAD", "county": "Indiana", "lat": 40.380000, "lon": -79.060000, "Primary NA": 221112, "Industry T": "C,D", "Industry_1": "Power Plants", "total_emissions": 10601387.300000, "CO2 emissi": 10516547.100000, "Methane (C": 31034.300000, "Nitrous Ox": 53806.000000 }, "geometry": { "type": "Point", "coordinates": [ -79.06, 40.38 ] } },
{ "type": "Feature", "properties": { "id": 1000845, "frs_id": 110000605417.000000, "name": "Conesville", "city": "CONESVILLE", "st": "OH", "zip": 43811, "address": "STATE ROUTE 16", "county": "Coshocton", "lat": 40.190000, "lon": -81.880000, "Primary NA": 221112, "Industry T": "C,D", "Industry_1": "Power Plants", "total_emissions": 6645706.200000, "CO2 emissi": 6593612.300000, "Methane (C": 19055.500000, "Nitrous Ox": 33038.400000 }, "geometry": { "type": "Point", "coordinates": [ -81.88, 40.19 ] } },
{ "type": "Feature", "properties": { "id": 1001008, "frs_id": 110000468020.000000, "name": "Craig", "city": "CRAIG", "st": "CO", "zip": 81626, "address": "2101 S RANNEY", "county": "Moffat", "lat": 40.460000, "lon": -107.590000, "Primary NA": 221112, "Industry T": "C,D", "Industry_1": "Power Plants", "total_emissions": 8021810.800000, "CO2 emissi": 7958923.300000, "Methane (C": 23003.500000, "Nitrous Ox": 39884.000000 }, "geometry": { "type": "Point", "coordinates": [ -107.59, 40.46 ] } },
{ "type": "Feature", "properties": { "id": 1001427, "frs_id": 110000499764.000000, "name": "Cross", "city": "PINEVILLE", "st": "SC", "zip": 29468, "address": "553 CROSS STATION ROAD", "county": "Berkeley", "lat": 33.370000, "lon": -80.110000, "Primary NA": 221112, "Industry T": "D", "Industry_1": "Power Plants", "total_emissions": 12443283.300000, "CO2 emissi": 12349274.700000, "Methane (C": 34384.500000, "Nitrous Ox": 59624.100000 }, "geometry": { "type": "Point", "coordinates": [ -80.11, 33.37 ] } },
{ "type": "Feature", "properties": { "id": 1001487, "frs_id": 110017431215.000000, "name": "Crystal River Power Plant", "city": "CRYSTAL RIVER", "st": "FL", "zip": 34428, "address": "15760 WEST POWERLINE ST", "county": "Citrus", "lat": 28.960000, "lon": -82.700000, "Primary NA": 221112, "Industry T": "C,D,TT", "Industry_1": "Power Plants,Waste", "total_emissions": 11019252.600000, "CO2 emissi": 10925541.300000, "Methane (C": 37735.000000, "Nitrous Ox": 55976.300000 }, "geometry": { "type": "Point", "coordinates": [ -82.7, 28.96 ] } },
{ "type": "Feature", "properties": { "id": 1007639, "frs_id": 110000493127.000000, "name": "Cumberland", "city": "CUMBERLAND CITY", "st": "TN", "zip": 37050, "address": "815 CUMBERLAND CITY RD", "county": "Stewart", "lat": 36.390000, "lon": -87.650000, "Primary NA": 221112, "Industry T": "C,D", "Industry_1": "Power Plants", "total_emissions": 13638613.900000, "CO2 emissi": 13565518.400000, "Methane (C": 3658.300000, "Nitrous Ox": 69437.300000 }, "geometry": { "type": "Point", "coordinates": [ -87.65, 36.39 ] } },
{ "type": "Feature", "properties": { "id": 1001414, "frs_id": 110000589097.000000, "name": "E C Gaston", "city": "WILSONVILLE", "st": "AL", "zip": 35186, "address": "31972 HIGHWAY 25 NORTH", "county": "Shelby", "lat": 33.240000, "lon": -86.460000, "Primary NA": 221112, "Industry T": "C,D", "Industry_1": "Power Plants", "total_emissions": 6798481.800000, "CO2 emissi": 6744010.600000, "Methane (C": 19925.000000, "Nitrous Ox": 34546.200000 }, "geometry": { "type": "Point", "coordinates": [ -86.46, 33.24 ] } },
{ "type": "Feature", "properties": { "id": 1000971, "frs_id": 110043799501.000000, "name": "Fort Martin Power Station", "city": "MAIDSVILLE", "st": "WV", "zip": 26541, "address": "1732 FORT MARTIN DRIVE", "county": "Monongalia", "lat": 39.710000, "lon": -79.930000, "Primary NA": 221112, "Industry T": "C,D", "Industry_1": "Power Plants", "total_emissions": 7139279.100000, "CO2 emissi": 7101833.600000, "Methane (C": 1870.000000, "Nitrous Ox": 35575.500000 }, "geometry": { "type": "Point", "coordinates": [ -79.93, 39.71 ] } },
{ "type": "Feature", "properties": { "id": 1007245, "frs_id": 110042068473.000000, "name": "Four Corners Steam Elec Station", "city": "FRUITLAND", "st": "NM", "zip": 87416, "address": "END OF COUNTY RD 6675", "county": "San Juan", "lat": 36.700000, "lon": -108.470000, "Primary NA": 221112, "Industry T": "C,D", "Industry_1": "Power Plants", "total_emissions": 11803398.200000, "CO2 emissi": 11708849.400000, "Methane (C": 34585.300000, "Nitrous Ox": 59963.600000 }, "geometry": { "type": "Point", "coordinates": [ -108.47, 36.7 ] } },
{ "type": "Feature", "properties": { "id": 1007790, "frs_id": 110000493136.000000, "name": "Gallatin", "city": "GALLATIN", "st": "TN", "zip": 37066, "address": "1499 STEAM PLANT RD", "county": "Sumner", "lat": 36.320000, "lon": -86.400000, "Primary NA": 221112, "Industry T": "C,D", "Industry_1": "Power Plants", "total_emissions": 6730238.800000, "CO2 emissi": 6694974.800000, "Methane (C": 1762.300000, "Nitrous Ox": 33501.800000 }, "geometry": { "type": "Point", "coordinates": [ -86.4, 36.32 ] } },
{ "type": "Feature", "properties": { "id": 1001194, "frs_id": 110043788327.000000, "name": "Gen J M Gavin", "city": "CHESHIRE", "st": "OH", "zip": 45620, "address": "OHIO ROUTE 7", "county": "Gallia", "lat": 38.930000, "lon": -82.120000, "Primary NA": 221112, "Industry T": "C,D", "Industry_1": "Power Plants", "total_emissions": 14418484.900000, "CO2 emissi": 14305498.900000, "Methane (C": 41326.300000, "Nitrous Ox": 71659.800000 }, "geometry": { "type": "Point", "coordinates": [ -82.12, 38.93 ] } },
{ "type": "Feature", "properties": { "id": 1006589, "frs_id": 110000606522.000000, "name": "Gerald Gentleman Station", "city": "SUTHERLAND", "st": "NE", "zip": 69165, "address": "6089 SOUTH HWY 25", "county": "Lincoln", "lat": 41.080000, "lon": -101.140000, "Primary NA": 221112, "Industry T": "C,D", "Industry_1": "Power Plants", "total_emissions": 9267380.100000, "CO2 emissi": 9218863.600000, "Methane (C": 2422.500000, "Nitrous Ox": 46094.000000 }, "geometry": { "type": "Point", "coordinates": [ -101.14, 41.08 ] } },
{ "type": "Feature", "properties": { "id": 1006512, "frs_id": 110000874224.000000, "name": "Ghent", "city": "Ghent", "st": "KY", "zip": 41045, "address": "9485 Highway 42 East", "county": "Carroll", "lat": 38.750000, "lon": -85.040000, "Primary NA": 221112, "Industry T": "D", "Industry_1": "Power Plants", "total_emissions": 12759799.200000, "CO2 emissi": 12623418.000000, "Methane (C": 47467.500000, "Nitrous Ox": 88913.700000 }, "geometry": { "type": "Point", "coordinates": [ -85.04, 38.75 ] } },
{ "type": "Feature", "properties": { "id": 1001030, "frs_id": 110000592813.000000, "name": "Gibson", "city": "OWENSVILLE", "st": "IN", "zip": 47665, "address": "1097 N 950 W", "county": "Gibson", "lat": 38.220000, "lon": -87.460000, "Primary NA": 221112, "Industry T": "D", "Industry_1": "Power Plants", "total_emissions": 15974110.900000, "CO2 emissi": 15846229.700000, "Methane (C": 46777.500000, "Nitrous Ox": 81103.700000 }, "geometry": { "type": "Point", "coordinates": [ -87.46, 38.22 ] } },
{ "type": "Feature", "properties": { "id": 1007640, "frs_id": 110017429521.000000, "name": "H L Spurlock", "city": "MAYSVILLE", "st": "KY", "zip": 41056, "address": "ROUTE 8", "county": "Mason", "lat": 38.700000, "lon": -83.820000, "Primary NA": 221112, "Industry T": "C,D", "Industry_1": "Power Plants", "total_emissions": 7825345.400000, "CO2 emissi": 7783055.700000, "Methane (C": 2285.300000, "Nitrous Ox": 40004.400000 }, "geometry": { "type": "Point", "coordinates": [ -83.82, 38.7 ] } },
{ "type": "Feature", "properties": { "id": 1007793, "frs_id": 110000586125.000000, "name": "Harrison Power Station", "city": "HAYWOOD", "st": "WV", "zip": 26366, "address": "ROUTE 20", "county": "Harrison", "lat": 39.380000, "lon": -80.320000, "Primary NA": 221112, "Industry T": "C,D", "Industry_1": "Power Plants", "total_emissions": 11509328.600000, "CO2 emissi": 11447612.800000, "Methane (C": 3074.800000, "Nitrous Ox": 58641.000000 }, "geometry": { "type": "Point", "coordinates": [ -80.32, 39.38 ] } },
{ "type": "Feature", "properties": { "id": 1000902, "frs_id": 110017437148.000000, "name": "Hatfield's Ferry Power Station", "city": "MASONTOWN", "st": "PA", "zip": 15461, "address": "2907 EAST ROY FURMAN HIGHWAY", "county": "Greene", "lat": 39.850000, "lon": -79.930000, "Primary NA": 221112, "Industry T": "C,D", "Industry_1": "Power Plants", "total_emissions": 7346997.500000, "CO2 emissi": 7307601.200000, "Methane (C": 1962.800000, "Nitrous Ox": 37433.600000 }, "geometry": { "type": "Point", "coordinates": [ -79.93, 39.85 ] } },
{ "type": "Feature", "properties": { "id": 1006728, "frs_id": 110000330339.000000, "name": "Homer City", "city": "HOMER CITY", "st": "PA", "zip": 15748, "address": "1750 POWER PLANT ROAD", "county": "Indiana", "lat": 40.510000, "lon": -79.190000, "Primary NA": 221112, "Industry T": "C,D", "Industry_1": "Power Plants", "total_emissions": 10147419.600000, "CO2 emissi": 10066241.700000, "Methane (C": 29689.500000, "Nitrous Ox": 51488.400000 }, "geometry": { "type": "Point", "coordinates": [ -79.19, 40.51 ] } },
{ "type": "Feature", "properties": { "id": 1001036, "frs_id": 110000600608.000000, "name": "Hunter", "city": "CASTLE DALE", "st": "UT", "zip": 84513, "address": "UT HWY 10 S OF CASTLE DALE", "county": "Emery", "lat": 39.170000, "lon": -111.030000, "Primary NA": 221112, "Industry T": "D", "Industry_1": "Power Plants", "total_emissions": 9245078.100000, "CO2 emissi": 9171054.400000, "Methane (C": 27075.000000, "Nitrous Ox": 46948.700000 }, "geometry": { "type": "Point", "coordinates": [ -111.03, 39.17 ] } },
{ "type": "Feature", "properties": { "id": 1001018, "frs_id": 110000602651.000000, "name": "Iatan", "city": "WESTON", "st": "MO", "zip": 64098, "address": "20250 HWY 45 N", "county": "Platte", "lat": 39.450000, "lon": -94.980000, "Primary NA": 221112, "Industry T": "D", "Industry_1": "Power Plants", "total_emissions": 9874198.100000, "CO2 emissi": 9822394.900000, "Methane (C": 2581.000000, "Nitrous Ox": 49222.200000 }, "geometry": { "type": "Point", "coordinates": [ -94.98, 39.45 ] } },
{ "type": "Feature", "properties": { "id": 1001059, "frs_id": 110000452705.000000, "name": "Independence", "city": "NEWARK", "st": "AR", "zip": 72562, "address": "555 POINT FERRY ROAD", "county": "Independence", "lat": 35.670000, "lon": -91.410000, "Primary NA": 221112, "Industry T": "C,D", "Industry_1": "Power Plants", "total_emissions": 10018002.400000, "CO2 emissi": 9939476.800000, "Methane (C": 28723.300000, "Nitrous Ox": 49802.400000 }, "geometry": { "type": "Point", "coordinates": [ -91.41, 35.67 ] } },
{ "type": "Feature", "properties": { "id": 1005628, "frs_id": 110000470053.000000, "name": "Intermountain", "city": "DELTA", "st": "UT", "zip": 84624, "address": "850 BRUSH WELLMAN RD", "county": "Millard", "lat": 39.500000, "lon": -112.580000, "Primary NA": 221112, "Industry T": "C,D", "Industry_1": "Power Plants", "total_emissions": 11438491.900000, "CO2 emissi": 11347197.400000, "Methane (C": 33394.000000, "Nitrous Ox": 57900.500000 }, "geometry": { "type": "Point", "coordinates": [ -112.58, 39.5 ] } },
{ "type": "Feature", "properties": { "id": 1000670, "frs_id": 110000411108.000000, "name": "J H Campbell", "city": "WEST OLIVE", "st": "MI", "zip": 49460, "address": "17000 CROSWELL ST", "county": "Ottawa", "lat": 42.910000, "lon": -86.200000, "Primary NA": 221112, "Industry T": "C,D", "Industry_1": "Power Plants", "total_emissions": 8667425.500000, "CO2 emissi": 8621956.900000, "Methane (C": 2266.000000, "Nitrous Ox": 43202.600000 }, "geometry": { "type": "Point", "coordinates": [ -86.2, 42.91 ] } },
{ "type": "Feature", "properties": { "id": 1007376, "frs_id": 110000464916.000000, "name": "J K Spruce", "city": "SAN ANTONIO", "st": "TX", "zip": 78223, "address": "12940 S US Hwy 181", "county": "Bexar", "lat": 29.310000, "lon": -98.320000, "Primary NA": 221112, "Industry T": "C,D", "Industry_1": "Power Plants", "total_emissions": 7537980.900000, "CO2 emissi": 7497561.600000, "Methane (C": 2013.800000, "Nitrous Ox": 38405.400000 }, "geometry": { "type": "Point", "coordinates": [ -98.32, 29.31 ] } },
{ "type": "Feature", "properties": { "id": 1000849, "frs_id": 110000741920.000000, "name": "J M Stuart", "city": "Manchester", "st": "OH", "zip": 45144, "address": "745 US 52", "county": "Adams", "lat": 38.640000, "lon": -83.690000, "Primary NA": 221112, "Industry T": "C,D", "Industry_1": "Power Plants", "total_emissions": 12633534.400000, "CO2 emissi": 12565791.200000, "Methane (C": 3375.800000, "Nitrous Ox": 64367.400000 }, "geometry": { "type": "Point", "coordinates": [ -83.69, 38.64 ] } },
{ "type": "Feature", "properties": { "id": 1001508, "frs_id": 110000355972.000000, "name": "Jack McDonough", "city": "SMYRNA", "st": "GA", "zip": 30080, "address": "5551 SOUTH COBB DRIVE", "county": "Cobb", "lat": 33.820000, "lon": -84.480000, "Primary NA": 221112, "Industry T": "C,D", "Industry_1": "Power Plants", "total_emissions": 6644010.600000, "CO2 emissi": 6637264.200000, "Methane (C": 3077.800000, "Nitrous Ox": 3668.700000 }, "geometry": { "type": "Point", "coordinates": [ -84.48, 33.82 ] } },
{ "type": "Feature", "properties": { "id": 1007227, "frs_id": 110043792651.000000, "name": "James H Miller Jr", "city": "Quinton", "st": "AL", "zip": 35130, "address": "4250 Porter Road", "county": "Jefferson", "lat": 33.630000, "lon": -87.060000, "Primary NA": 221112, "Industry T": "D", "Industry_1": "Power Plants", "total_emissions": 21870696.300000, "CO2 emissi": 21699239.700000, "Methane (C": 62717.000000, "Nitrous Ox": 108739.600000 }, "geometry": { "type": "Point", "coordinates": [ -87.06, 33.63 ] } },
{ "type": "Feature", "properties": { "id": 1001192, "frs_id": 110007899970.000000, "name": "Jim Bridger", "city": "POINT OF ROCKS", "st": "WY", "zip": 82942, "address": "35 MILES EAST OF ROCK SPRINGS", "county": "Sweetwater", "lat": 41.730000, "lon": -108.790000, "Primary NA": 221112, "Industry T": "D", "Industry_1": "Power Plants", "total_emissions": 14725680.200000, "CO2 emissi": 14610291.900000, "Methane (C": 42205.800000, "Nitrous Ox": 73182.500000 }, "geometry": { "type": "Point", "coordinates": [ -108.79, 41.73 ] } },
{ "type": "Feature", "properties": { "id": 1000967, "frs_id": 110042086505.000000, "name": "John E Amos", "city": "ST ALBANS", "st": "WV", "zip": 25213, "address": "US ROUTE 35", "county": "Putnam", "lat": 38.470000, "lon": -81.820000, "Primary NA": 221112, "Industry T": "C,D", "Industry_1": "Power Plants", "total_emissions": 13382859.800000, "CO2 emissi": 13277965.400000, "Methane (C": 38368.000000, "Nitrous Ox": 66526.400000 }, "geometry": { "type": "Point", "coordinates": [ -81.82, 38.47 ] } },
{ "type": "Feature", "properties": { "id": 1000340, "frs_id": 110043786249.000000, "name": "Joppa Steam", "city": "JOPPA", "st": "IL", "zip": 62953, "address": "2100 PORTLAND ROAD", "county": "Massac", "lat": 37.210000, "lon": -88.860000, "Primary NA": 221112, "Industry T": "C,D", "Industry_1": "Power Plants", "total_emissions": 6984116.100000, "CO2 emissi": 6929529.800000, "Methane (C": 19968.300000, "Nitrous Ox": 34618.100000 }, "geometry": { "type": "Point", "coordinates": [ -88.86, 37.21 ] } },
{ "type": "Feature", "properties": { "id": 1000883, "frs_id": 110000538525.000000, "name": "Keystone", "city": "SHELOCTA", "st": "PA", "zip": 15774, "address": "313 KEYSTONE DRIVE", "county": "Armstrong", "lat": 40.660000, "lon": -79.350000, "Primary NA": 221112, "Industry T": "C,D", "Industry_1": "Power Plants", "total_emissions": 11324077.800000, "CO2 emissi": 11233449.500000, "Methane (C": 33146.500000, "Nitrous Ox": 57481.800000 }, "geometry": { "type": "Point", "coordinates": [ -79.35, 40.66 ] } },
{ "type": "Feature", "properties": { "id": 1006539, "frs_id": 110000747988.000000, "name": "La Cygne", "city": "LA CYGNE", "st": "KS", "zip": 66040, "address": "25166 E 2200 RD", "county": "Linn", "lat": 38.350000, "lon": -94.640000, "Primary NA": 221112, "Industry T": "C,D", "Industry_1": "Power Plants", "total_emissions": 7647276.700000, "CO2 emissi": 7607168.900000, "Methane (C": 2004.000000, "Nitrous Ox": 38103.800000 }, "geometry": { "type": "Point", "coordinates": [ -94.64, 38.35 ] } },
{ "type": "Feature", "properties": { "id": 1000192, "frs_id": 110000440470.000000, "name": "Labadie", "city": "LABADIE", "st": "MO", "zip": 63055, "address": "226 LABADIE POWER PLANT ROAD", "county": "Franklin", "lat": 38.550000, "lon": -90.840000, "Primary NA": 221112, "Industry T": "D", "Industry_1": "Power Plants", "total_emissions": 15330245.000000, "CO2 emissi": 15210062.500000, "Methane (C": 43961.500000, "Nitrous Ox": 76221.000000 }, "geometry": { "type": "Point", "coordinates": [ -90.84, 38.55 ] } },
{ "type": "Feature", "properties": { "id": 1001045, "frs_id": 110043788265.000000, "name": "Laramie River", "city": "WHEATLAND", "st": "WY", "zip": 82070, "address": "HWY 320", "county": "Platte", "lat": 41.360000, "lon": -105.880000, "Primary NA": 221112, "Industry T": "D", "Industry_1": "Power Plants", "total_emissions": 12898437.700000, "CO2 emissi": 12807681.700000, "Methane (C": 33194.000000, "Nitrous Ox": 57562.000000 }, "geometry": { "type": "Point", "coordinates": [ -105.88, 41.36 ] } },
{ "type": "Feature", "properties": { "id": 1005713, "frs_id": 110000608245.000000, "name": "Limestone", "city": "JEWETT", "st": "TX", "zip": 75846, "address": "3964 FM 39", "county": "Leon", "lat": 31.410000, "lon": -96.250000, "Primary NA": 221112, "Industry T": "D", "Industry_1": "Power Plants", "total_emissions": 12608896.400000, "CO2 emissi": 12513627.300000, "Methane (C": 34848.400000, "Nitrous Ox": 60420.700000 }, "geometry": { "type": "Point", "coordinates": [ -96.25, 31.41 ] } },
{ "type": "Feature", "properties": { "id": 1000834, "frs_id": 110000351397.000000, "name": "Marshall", "city": "TERRELL", "st": "NC", "zip": 28682, "address": "8320 EAST HWY 150", "county": "Catawba", "lat": 35.590000, "lon": -80.970000, "Primary NA": 221112, "Industry T": "D", "Industry_1": "Power Plants", "total_emissions": 7812143.300000, "CO2 emissi": 7757036.400000, "Methane (C": 20157.500000, "Nitrous Ox": 34949.400000 }, "geometry": { "type": "Point", "coordinates": [ -80.97, 35.59 ] } },
{ "type": "Feature", "properties": { "id": 1007504, "frs_id": 110043787220.000000, "name": "Martin Lake", "city": "TATUM", "st": "TX", "zip": 75691, "address": "8850 FM 2658 North", "county": "Rusk", "lat": 32.260000, "lon": -94.570000, "Primary NA": 221112, "Industry T": "C,D", "Industry_1": "Power Plants", "total_emissions": 16128664.400000, "CO2 emissi": 16047142.800000, "Methane (C": 4066.000000, "Nitrous Ox": 77455.600000 }, "geometry": { "type": "Point", "coordinates": [ -94.57, 32.26 ] } },
{ "type": "Feature", "properties": { "id": 1000841, "frs_id": 110000823379.000000, "name": "Miami Fort Generating Station", "city": "NORTH BEND", "st": "OH", "zip": 45052, "address": "11021 Brower Road", "county": "Hamilton", "lat": 39.120000, "lon": -84.800000, "Primary NA": 221112, "Industry T": "C,D", "Industry_1": "Power Plants", "total_emissions": 7903857.500000, "CO2 emissi": 7840555.400000, "Methane (C": 23155.300000, "Nitrous Ox": 40146.900000 }, "geometry": { "type": "Point", "coordinates": [ -84.8, 39.12 ] } },
{ "type": "Feature", "properties": { "id": 1006510, "frs_id": 110000378733.000000, "name": "Mill Creek", "city": "Louisville", "st": "KY", "zip": 40272, "address": "14660 Dixie Highway", "county": "Jefferson", "lat": 38.050000, "lon": -85.910000, "Primary NA": 221112, "Industry T": "C,D", "Industry_1": "Power Plants", "total_emissions": 7926000.500000, "CO2 emissi": 7857907.300000, "Methane (C": 25326.000000, "Nitrous Ox": 42767.200000 }, "geometry": { "type": "Point", "coordinates": [ -85.91, 38.05 ] } },
{ "type": "Feature", "properties": { "id": 1000676, "frs_id": 110000405927.000000, "name": "Monroe", "city": "MONROE", "st": "MI", "zip": 48161, "address": "3500 FRONT ST", "county": "Monroe", "lat": 41.890000, "lon": -83.350000, "Primary NA": 221112, "Industry T": "C,D", "Industry_1": "Power Plants", "total_emissions": 15452854.100000, "CO2 emissi": 15328968.000000, "Methane (C": 45311.300000, "Nitrous Ox": 78574.900000 }, "geometry": { "type": "Point", "coordinates": [ -83.35, 41.89 ] } },
{ "type": "Feature", "properties": { "id": 1001034, "frs_id": 110000598835.000000, "name": "Monticello", "city": "MOUNT PLEASANT", "st": "TX", "zip": 75455, "address": null, "county": "Titus", "lat": 33.090000, "lon": -95.040000, "Primary NA": 221112, "Industry T": "C,D", "Industry_1": "Power Plants", "total_emissions": 8431327.600000, "CO2 emissi": 8388709.300000, "Methane (C": 2124.000000, "Nitrous Ox": 40494.300000 }, "geometry": { "type": "Point", "coordinates": [ -95.04, 33.09 ] } },
{ "type": "Feature", "properties": { "id": 1000977, "frs_id": 110007876637.000000, "name": "Mount Storm Power Station", "city": "MOUNT STORM", "st": "WV", "zip": 26739, "address": "436 Dominion Blvd", "county": "Grant", "lat": 39.200000, "lon": -79.270000, "Primary NA": 221112, "Industry T": "C,D", "Industry_1": "Power Plants", "total_emissions": 8874328.200000, "CO2 emissi": 8805968.000000, "Methane (C": 25001.800000, "Nitrous Ox": 43358.400000 }, "geometry": { "type": "Point", "coordinates": [ -79.27, 39.2 ] } },
{ "type": "Feature", "properties": { "id": 1000860, "frs_id": 110000860854.000000, "name": "Muskogee", "city": "FORT GIBSON", "st": "OK", "zip": 74434, "address": "5501 THREE FORKS ROAD", "county": "Muskogee", "lat": 35.760000, "lon": -95.290000, "Primary NA": 221112, "Industry T": "C,D", "Industry_1": "Power Plants", "total_emissions": 7123146.300000, "CO2 emissi": 7067393.200000, "Methane (C": 20399.300000, "Nitrous Ox": 35353.800000 }, "geometry": { "type": "Point", "coordinates": [ -95.29, 35.76 ] } },
{ "type": "Feature", "properties": { "id": 1000999, "frs_id": 110028287725.000000, "name": "Navajo Generating Station", "city": "PAGE", "st": "AZ", "zip": 86040, "address": null, "county": "Coconino", "lat": 36.900000, "lon": -111.390000, "Primary NA": 221112, "Industry T": "C,D", "Industry_1": "Power Plants", "total_emissions": 16295829.600000, "CO2 emissi": 16165262.200000, "Methane (C": 47759.800000, "Nitrous Ox": 82807.600000 }, "geometry": { "type": "Point", "coordinates": [ -111.39, 36.9 ] } },
{ "type": "Feature", "properties": { "id": 1001026, "frs_id": 110000606489.000000, "name": "Nebraska City Station", "city": "NEBRASKA CITY", "st": "NE", "zip": 68410, "address": "7264 L ROAD", "county": "Otoe", "lat": 40.620000, "lon": -95.770000, "Primary NA": 221112, "Industry T": "C,D", "Industry_1": "Power Plants", "total_emissions": 9314971.100000, "CO2 emissi": 9266095.500000, "Methane (C": 2435.000000, "Nitrous Ox": 46440.600000 }, "geometry": { "type": "Point", "coordinates": [ -95.77, 40.62 ] } },
{ "type": "Feature", "properties": { "id": 1000715, "frs_id": 110000606336.000000, "name": "New Madrid Power Plant", "city": "NEW MADRID", "st": "MO", "zip": 63869, "address": "41 ST JUDE INDUSTRIAL PARK", "county": "New Madrid", "lat": 36.510000, "lon": -89.560000, "Primary NA": 221112, "Industry T": "C,D", "Industry_1": "Power Plants", "total_emissions": 7390397.700000, "CO2 emissi": 7351625.700000, "Methane (C": 1931.800000, "Nitrous Ox": 36840.300000 }, "geometry": { "type": "Point", "coordinates": [ -89.56, 36.51 ] } },
{ "type": "Feature", "properties": { "id": 1000862, "frs_id": 110000750740.000000, "name": "Northeastern", "city": "Oologah", "st": "OK", "zip": 74053, "address": "7300 E. Hwy 88", "county": "Rogers", "lat": 36.430000, "lon": -95.700000, "Primary NA": 221112, "Industry T": "C,D", "Industry_1": "Power Plants", "total_emissions": 8132419.300000, "CO2 emissi": 8077732.400000, "Methane (C": 20125.800000, "Nitrous Ox": 34561.100000 }, "geometry": { "type": "Point", "coordinates": [ -95.7, 36.43 ] } },
{ "type": "Feature", "properties": { "id": 1007505, "frs_id": 110040582937.000000, "name": "Oak Grove", "city": "FRANKLIN", "st": "TX", "zip": 77856, "address": "8127 Oak Grove Road", "county": "Robertson", "lat": 31.180000, "lon": -96.490000, "Primary NA": 221112, "Industry T": "C,D", "Industry_1": "Power Plants", "total_emissions": 11943466.100000, "CO2 emissi": 11883084.900000, "Methane (C": 3010.500000, "Nitrous Ox": 57370.700000 }, "geometry": { "type": "Point", "coordinates": [ -96.49, 31.18 ] } },
{ "type": "Feature", "properties": { "id": 1001887, "frs_id": 110018305056.000000, "name": "PRAIRIE STATE GENERATING STATION", "city": "MARISSA", "st": "IL", "zip": 62257, "address": "1739 NEW MARIGOLD RD.", "county": "Washington", "lat": 38.280000, "lon": -89.670000, "Primary NA": 221112, "Industry T": "C,D,FF", "Industry_1": "Other,Power Plants", "total_emissions": 8265272.600000, "CO2 emissi": 8167513.000000, "Methane (C": 55927.000000, "Nitrous Ox": 41832.600000 }, "geometry": { "type": "Point", "coordinates": [ -89.67, 38.28 ] } },
{ "type": "Feature", "properties": { "id": 1005830, "frs_id": 110000380882.000000, "name": "Paradise", "city": "DRAKESBORO", "st": "KY", "zip": 42337, "address": "13246 STATE ROUTE 176\/STE 10", "county": "Muhlenberg", "lat": 37.260000, "lon": -86.980000, "Primary NA": 221112, "Industry T": "C,D", "Industry_1": "Power Plants", "total_emissions": 12072934.200000, "CO2 emissi": 12008196.100000, "Methane (C": 3225.300000, "Nitrous Ox": 61512.900000 }, "geometry": { "type": "Point", "coordinates": [ -86.98, 37.26 ] } },
{ "type": "Feature", "properties": { "id": 1001536, "frs_id": 110037247912.000000, "name": "Petersburg", "city": "PETERSBURG", "st": "IN", "zip": 47567, "address": "6925 NORTH STATE ROAD 57", "county": "Pike", "lat": 38.530000, "lon": -87.250000, "Primary NA": 221112, "Industry T": "D", "Industry_1": "Power Plants", "total_emissions": 10195058.300000, "CO2 emissi": 10113371.900000, "Methane (C": 29880.000000, "Nitrous Ox": 51806.400000 }, "geometry": { "type": "Point", "coordinates": [ -87.25, 38.53 ] } },
{ "type": "Feature", "properties": { "id": 1006632, "frs_id": 110000417433.000000, "name": "Pleasant Prairie", "city": "PLEASANT PRAIRIE", "st": "WI", "zip": 53158, "address": "8000 95TH ST", "county": "Kenosha", "lat": 42.540000, "lon": -87.900000, "Primary NA": 221112, "Industry T": "C,D", "Industry_1": "Power Plants", "total_emissions": 8788988.700000, "CO2 emissi": 8742881.500000, "Methane (C": 2298.300000, "Nitrous Ox": 43809.000000 }, "geometry": { "type": "Point", "coordinates": [ -87.9, 42.54 ] } },
{ "type": "Feature", "properties": { "id": 1001001, "frs_id": 110020047554.000000, "name": "Pleasants Power Station", "city": "WILLOW ISLAND", "st": "WV", "zip": 26134, "address": "#1 POWER STATION BLVD", "county": "Pleasants", "lat": 39.370000, "lon": -81.290000, "Primary NA": 221112, "Industry T": "C,D", "Industry_1": "Power Plants", "total_emissions": 7363142.000000, "CO2 emissi": 7324525.500000, "Methane (C": 1925.000000, "Nitrous Ox": 36691.500000 }, "geometry": { "type": "Point", "coordinates": [ -81.29, 39.37 ] } },
{ "type": "Feature", "properties": { "id": 1001521, "frs_id": 110000438027.000000, "name": "Powerton", "city": "PEKIN", "st": "IL", "zip": 61554, "address": "13082 EAST MANITO RD", "county": "Tazewell", "lat": 40.540000, "lon": -89.680000, "Primary NA": 221112, "Industry T": "C,D", "Industry_1": "Power Plants", "total_emissions": 9500878.900000, "CO2 emissi": 9427471.800000, "Methane (C": 26851.500000, "Nitrous Ox": 46555.600000 }, "geometry": { "type": "Point", "coordinates": [ -89.68, 40.54 ] } },
{ "type": "Feature", "properties": { "id": 1001023, "frs_id": 110000493706.000000, "name": "R M Schahfer Generating Station", "city": "WHEATFIELD", "st": "IN", "zip": 46392, "address": "2723 E 1500 N", "county": "Jasper", "lat": 41.220000, "lon": -87.020000, "Primary NA": 221112, "Industry T": "C,D", "Industry_1": "Power Plants", "total_emissions": 8531924.400000, "CO2 emissi": 8469088.800000, "Methane (C": 22986.800000, "Nitrous Ox": 39848.900000 }, "geometry": { "type": "Point", "coordinates": [ -87.02, 41.22 ] } },
{ "type": "Feature", "properties": { "id": 1001037, "frs_id": 110000747924.000000, "name": "Rockport", "city": "ROCKPORT", "st": "IN", "zip": 47635, "address": "2791 NORTH US ROUTE 231", "county": "Spencer", "lat": 37.930000, "lon": -87.040000, "Primary NA": 221112, "Industry T": "C,D", "Industry_1": "Power Plants", "total_emissions": 14796876.900000, "CO2 emissi": 14680895.100000, "Methane (C": 42423.800000, "Nitrous Ox": 73558.000000 }, "geometry": { "type": "Point", "coordinates": [ -87.04, 37.93 ] } },
{ "type": "Feature", "properties": { "id": 1000787, "frs_id": 110000346386.000000, "name": "Roxboro Steam Electric Plant", "city": "SEMORA", "st": "NC", "zip": 27343, "address": "1700 DUNNAWAY ROAD", "county": "Person", "lat": 36.480000, "lon": -79.070000, "Primary NA": 221112, "Industry T": "D,TT", "Industry_1": "Power Plants,Waste", "total_emissions": 9425131.200000, "CO2 emissi": 9346658.000000, "Methane (C": 30602.500000, "Nitrous Ox": 47870.700000 }, "geometry": { "type": "Point", "coordinates": [ -79.07, 36.48 ] } },
{ "type": "Feature", "properties": { "id": 1001035, "frs_id": 110000440210.000000, "name": "Rush Island", "city": "FESTUS", "st": "MO", "zip": 63028, "address": "100 BIG HOLLOW ROAD", "county": "Jefferson", "lat": 38.130000, "lon": -90.260000, "Primary NA": 221112, "Industry T": "C,D", "Industry_1": "Power Plants", "total_emissions": 7129195.000000, "CO2 emissi": 7073305.600000, "Methane (C": 20443.800000, "Nitrous Ox": 35445.600000 }, "geometry": { "type": "Point", "coordinates": [ -90.26, 38.13 ] } },
{ "type": "Feature", "properties": { "id": 1007153, "frs_id": 110000465620.000000, "name": "Sam Seymour", "city": "LA GRANGE", "st": "TX", "zip": 78945, "address": "6549 POWER PLANT RD", "county": "Fayette", "lat": 29.910000, "lon": -96.760000, "Primary NA": 221112, "Industry T": "C,D", "Industry_1": "Power Plants", "total_emissions": 11245773.500000, "CO2 emissi": 11157611.600000, "Methane (C": 32248.800000, "Nitrous Ox": 55913.100000 }, "geometry": { "type": "Point", "coordinates": [ -96.76, 29.91 ] } },
{ "type": "Feature", "properties": { "id": 1006727, "frs_id": 110000600868.000000, "name": "San Juan", "city": "WATERFLOW", "st": "NM", "zip": 87421, "address": "6800 COUNTY ROAD NORTH", "county": "San Juan", "lat": 36.800000, "lon": -108.440000, "Primary NA": 221112, "Industry T": "D", "Industry_1": "Power Plants", "total_emissions": 11386775.800000, "CO2 emissi": 11301683.700000, "Methane (C": 31116.300000, "Nitrous Ox": 53975.800000 }, "geometry": { "type": "Point", "coordinates": [ -108.44, 36.8 ] } },
{ "type": "Feature", "properties": { "id": 1000499, "frs_id": 110007197853.000000, "name": "Sandow Station", "city": "ROCKDALE", "st": "TX", "zip": 76567, "address": null, "county": "Milam", "lat": 30.560000, "lon": -97.060000, "Primary NA": 221112, "Industry T": "C,D", "Industry_1": "Power Plants", "total_emissions": 8504777.100000, "CO2 emissi": 8461783.000000, "Methane (C": 2145.800000, "Nitrous Ox": 40848.400000 }, "geometry": { "type": "Point", "coordinates": [ -97.06, 30.56 ] } },
{ "type": "Feature", "properties": { "id": 1001051, "frs_id": 110007356066.000000, "name": "Scherer", "city": "JULIETTE", "st": "GA", "zip": 31046, "address": "10986 HIGHWAY 87", "county": "Monroe", "lat": 33.060000, "lon": -83.810000, "Primary NA": 221112, "Industry T": "C,D", "Industry_1": "Power Plants", "total_emissions": 22293328.100000, "CO2 emissi": 22118625.200000, "Methane (C": 63901.800000, "Nitrous Ox": 110801.200000 }, "geometry": { "type": "Point", "coordinates": [ -83.81, 33.06 ] } },
{ "type": "Feature", "properties": { "id": 1000084, "frs_id": 110041142304.000000, "name": "Seminole (136)", "city": "PALATKA", "st": "FL", "zip": 32708, "address": "STATE HIGHWAY 17", "county": "Seminole", "lat": 29.730000, "lon": -81.630000, "Primary NA": 221112, "Industry T": "D", "Industry_1": "Power Plants", "total_emissions": 6981111.100000, "CO2 emissi": 6925306.400000, "Methane (C": 20408.000000, "Nitrous Ox": 35396.700000 }, "geometry": { "type": "Point", "coordinates": [ -81.63, 29.73 ] } },
{ "type": "Feature", "properties": { "id": 1001598, "frs_id": 110000493305.000000, "name": "Shawnee", "city": "WEST PADUCAH", "st": "KY", "zip": 42086, "address": "7900 METROPOLIS LAKE RD", "county": "McCracken", "lat": 37.150000, "lon": -88.780000, "Primary NA": 221112, "Industry T": "D", "Industry_1": "Power Plants", "total_emissions": 7198164.500000, "CO2 emissi": 7160071.400000, "Methane (C": 1897.800000, "Nitrous Ox": 36195.400000 }, "geometry": { "type": "Point", "coordinates": [ -88.78, 37.15 ] } },
{ "type": "Feature", "properties": { "id": 1001024, "frs_id": 110000424700.000000, "name": "Sherburne County", "city": "BECKER", "st": "MN", "zip": 55308, "address": "13999 INDUSTRIAL BLVD", "county": "Sherburne", "lat": 45.380000, "lon": -93.900000, "Primary NA": 221112, "Industry T": "C,D", "Industry_1": "Power Plants", "total_emissions": 9023684.100000, "CO2 emissi": 8976386.100000, "Methane (C": 2367.000000, "Nitrous Ox": 44931.000000 }, "geometry": { "type": "Point", "coordinates": [ -93.9, 45.38 ] } },
{ "type": "Feature", "properties": { "id": 1001196, "frs_id": 110000600788.000000, "name": "Springerville Generating Station", "city": "SPRINGERVILLE", "st": "AZ", "zip": 85938, "address": "COUNTY ROAD #4162", "county": "Apache", "lat": 34.320000, "lon": -109.170000, "Primary NA": 221112, "Industry T": "D", "Industry_1": "Power Plants", "total_emissions": 10887352.500000, "CO2 emissi": 10802128.300000, "Methane (C": 31168.800000, "Nitrous Ox": 54055.400000 }, "geometry": { "type": "Point", "coordinates": [ -109.17, 34.32 ] } },
{ "type": "Feature", "properties": { "id": 1006587, "frs_id": 110000362134.000000, "name": "St. Johns River Power", "city": "JACKSONVILLE", "st": "FL", "zip": 32226, "address": "11201 NEW BURLIN ROAD", "county": "Duval", "lat": 30.420000, "lon": -81.550000, "Primary NA": 221112, "Industry T": "C,D", "Industry_1": "Power Plants", "total_emissions": 6672914.400000, "CO2 emissi": 6619736.100000, "Methane (C": 19454.300000, "Nitrous Ox": 33724.100000 }, "geometry": { "type": "Point", "coordinates": [ -81.55, 30.42 ] } },
{ "type": "Feature", "properties": { "id": 1000716, "frs_id": 110000444243.000000, "name": "Thomas Hill Energy Center", "city": "CLIFTON HILL", "st": "MO", "zip": 65244, "address": "5693 HIGHWAY F", "county": "Randolph", "lat": 39.550000, "lon": -92.640000, "Primary NA": 221112, "Industry T": "C,D", "Industry_1": "Power Plants", "total_emissions": 8084187.600000, "CO2 emissi": 8041775.700000, "Methane (C": 2114.000000, "Nitrous Ox": 40297.900000 }, "geometry": { "type": "Point", "coordinates": [ -92.64, 39.55 ] } },
{ "type": "Feature", "properties": { "id": 1001043, "frs_id": 110000600056.000000, "name": "Tolk Station", "city": "MULESHOE", "st": "TX", "zip": 79371, "address": "9M E OF MULESHOE ON HWY 70", "county": "Lamb", "lat": 34.190000, "lon": -102.570000, "Primary NA": 221112, "Industry T": "C,D", "Industry_1": "Power Plants", "total_emissions": 7672471.900000, "CO2 emissi": 7632235.100000, "Methane (C": 2005.500000, "Nitrous Ox": 38231.300000 }, "geometry": { "type": "Point", "coordinates": [ -102.57, 34.19 ] } },
{ "type": "Feature", "properties": { "id": 1006542, "frs_id": 110000377814.000000, "name": "Trimble County", "city": "BEDFORD", "st": "KY", "zip": 40006, "address": "487 CORN CREEK ROAD", "county": "Trimble", "lat": 38.580000, "lon": -85.410000, "Primary NA": 221112, "Industry T": "C,D", "Industry_1": "Power Plants", "total_emissions": 7298870.300000, "CO2 emissi": 7224140.600000, "Methane (C": 26036.800000, "Nitrous Ox": 48692.900000 }, "geometry": { "type": "Point", "coordinates": [ -85.41, 38.58 ] } },
{ "type": "Feature", "properties": { "id": 1006868, "frs_id": 110000608254.000000, "name": "W A Parish", "city": "THOMPSONS", "st": "TX", "zip": 77469, "address": "YU JONES RD", "county": "Fort Bend", "lat": 29.480000, "lon": -95.640000, "Primary NA": 221112, "Industry T": "C,D", "Industry_1": "Power Plants", "total_emissions": 15796418.000000, "CO2 emissi": 15674528.300000, "Methane (C": 44614.200000, "Nitrous Ox": 77275.600000 }, "geometry": { "type": "Point", "coordinates": [ -95.64, 29.48 ] } },
{ "type": "Feature", "properties": { "id": 1006794, "frs_id": 110000591609.000000, "name": "W H Sammis", "city": "STRATTON", "st": "OH", "zip": 43961, "address": null, "county": null, "lat": 40.530000, "lon": -80.630000, "Primary NA": 221112, "Industry T": "C,D", "Industry_1": "Power Plants", "total_emissions": 11287216.800000, "CO2 emissi": 11228002.000000, "Methane (C": 2950.000000, "Nitrous Ox": 56264.800000 }, "geometry": { "type": "Point", "coordinates": [ -80.63, 40.53 ] } },
{ "type": "Feature", "properties": { "id": 1001007, "frs_id": 110000392860.000000, "name": "W H Zimmer Generating Station", "city": "MOSCOW", "st": "OH", "zip": 45200, "address": "1781 US ROUTE 52", "county": "Clermont", "lat": 38.870000, "lon": -84.230000, "Primary NA": 221112, "Industry T": "C,D", "Industry_1": "Power Plants", "total_emissions": 8474948.800000, "CO2 emissi": 8407334.300000, "Methane (C": 24721.300000, "Nitrous Ox": 42893.200000 }, "geometry": { "type": "Point", "coordinates": [ -84.23, 38.87 ] } },
{ "type": "Feature", "properties": { "id": 1000581, "frs_id": 110006011680.000000, "name": "WESTAR ENERGY, INC.", "city": "ST. MARYS", "st": "KS", "zip": 66536, "address": "25905 JEFFREY ROAD", "county": "Pottawatomie", "lat": 39.290000, "lon": -96.120000, "Primary NA": 221112, "Industry T": "D", "Industry_1": "Power Plants", "total_emissions": 14740868.900000, "CO2 emissi": 14625378.000000, "Methane (C": 42242.500000, "Nitrous Ox": 73248.400000 }, "geometry": { "type": "Point", "coordinates": [ -96.12, 39.29 ] } },
{ "type": "Feature", "properties": { "id": 1001551, "frs_id": 110000414383.000000, "name": "Walter Scott Jr. Energy Center", "city": "COUNCIL BLUFFS", "st": "IA", "zip": 51501, "address": "7215 NAVAJO ST", "county": "Pottawattamie", "lat": 41.180000, "lon": -95.840000, "Primary NA": 221112, "Industry T": "C,D", "Industry_1": "Power Plants", "total_emissions": 10272009.700000, "CO2 emissi": 10191625.400000, "Methane (C": 29399.800000, "Nitrous Ox": 50984.500000 }, "geometry": { "type": "Point", "coordinates": [ -95.84, 41.18 ] } },
{ "type": "Feature", "properties": { "id": 1000375, "frs_id": 110013349947.000000, "name": "Welsh Power Plant", "city": "PITTSBURG", "st": "TX", "zip": 75686, "address": "FM RD 1735", "county": "Titus", "lat": 33.060000, "lon": -94.840000, "Primary NA": 221112, "Industry T": "D", "Industry_1": "Power Plants", "total_emissions": 8814944.800000, "CO2 emissi": 8745839.600000, "Methane (C": 25277.800000, "Nitrous Ox": 43827.500000 }, "geometry": { "type": "Point", "coordinates": [ -94.84, 33.06 ] } },
{ "type": "Feature", "properties": { "id": 1007171, "frs_id": 110007477391.000000, "name": "West County Energy Center", "city": "LOXAHATCHEE", "st": "FL", "zip": 33470, "address": "20505 STATE RD 80", "county": "Palm Beach", "lat": 26.690000, "lon": -80.370000, "Primary NA": 221112, "Industry T": "C,D", "Industry_1": "Power Plants", "total_emissions": 8120211.500000, "CO2 emissi": 8111938.900000, "Methane (C": 3767.800000, "Nitrous Ox": 4504.900000 }, "geometry": { "type": "Point", "coordinates": [ -80.37, 26.69 ] } },
{ "type": "Feature", "properties": { "id": 1001002, "frs_id": 110000451788.000000, "name": "White Bluff", "city": "REDFIELD", "st": "AR", "zip": 72132, "address": "1100 WHITE BLUFF ROAD", "county": "Jefferson", "lat": 34.420000, "lon": -92.140000, "Primary NA": 221112, "Industry T": "C,D", "Industry_1": "Power Plants", "total_emissions": 11453945.500000, "CO2 emissi": 11364171.500000, "Methane (C": 32837.300000, "Nitrous Ox": 56936.800000 }, "geometry": { "type": "Point", "coordinates": [ -92.14, 34.42 ] } }
]
}
