{
  "locations": [
	{
      "Location": {
        "id": "200396",
        "name": "Jugendmigrationsdienst Olsberg ",
        "phone": "049 (0)2962 9766-16",
        "city": "Olsberg",
        "plz": "59939",
        "street": "Hauptstr. 116",
        "federal_state": "Nordrhein-Westfalen",
        "longitude": "8.4835293",
        "latitude": "51.35453"
      },
      "Tag": [{
        "name": "JMD",
        "LocationsTag": {
          "id": "237",
          "location_id": "200396",
          "tag_id": "5"
        }
      }, {
        "name": "Respekt Coaches",
        "LocationsTag": {
          "id": "238",
          "location_id": "200396",
          "tag_id": "7"
        }
      }]
    }, {
      "Location": {
        "id": "200818",
        "name": "Jugendmigrationsdienst und Sprache Bad Kreuznach ",
        "phone": "049 (0)671  48364-0",
        "city": "Bad Kreuznach",
        "plz": "55543",
        "street": "Salinenstr. 39 a",
        "federal_state": "Rheinland-Pfalz",
        "longitude": "7.8607963",
        "latitude": "49.8412502"
      },
      "Tag": [{
        "name": "JMD",
        "LocationsTag": {
          "id": "73",
          "location_id": "200818",
          "tag_id": "5"
        }
      }, {
        "name": "Respekt Coaches",
        "LocationsTag": {
          "id": "74",
          "location_id": "200818",
          "tag_id": "7"
        }
      }]
    }, {
      "Location": {
        "id": "201920",
        "name": "Jugendmigrationsdienst Germersheim ",
        "phone": "049 (0)7274 94 997 -23\/-25",
        "city": "Germersheim",
        "plz": "76726",
        "street": "August-Keiler-Stra\u00dfe 29",
        "federal_state": "Rheinland-Pfalz",
        "longitude": "8.36995000000002",
        "latitude": "49.21298"
      },
      "Tag": [{
        "name": "JMD",
        "LocationsTag": {
          "id": "136",
          "location_id": "201920",
          "tag_id": "5"
        }
      }]
    }, {
      "Location": {
        "id": "201934",
        "name": "Jugendmigrationsdienst Arnsberg ",
        "phone": "049 (0)2962 9766-11",
        "city": "Arnsberg",
        "plz": "59759",
        "street": "Bahnhofstr. 128 a",
        "federal_state": "Nordrhein-Westfalen",
        "longitude": "7.9780043",
        "latitude": "51.4363829"
      },
      "Tag": [{
        "name": "JMD",
        "LocationsTag": {
          "id": "64",
          "location_id": "201934",
          "tag_id": "5"
        }
      }]
    }, {
      "Location": {
        "id": "201937",
        "name": "JMD Merzig (Jugendmigrationsdienst)",
        "phone": "049 (0)6861 790889",
        "city": "Merzig",
        "plz": "66663",
        "street": "Torstr. 28d",
        "federal_state": "Saarland",
        "longitude": "6.6366373",
        "latitude": "49.4457567"
      },
      "Tag": [{
        "name": "JMD",
        "LocationsTag": {
          "id": "61",
          "location_id": "201937",
          "tag_id": "5"
        }
      }, {
        "name": "Respekt Coaches",
        "LocationsTag": {
          "id": "62",
          "location_id": "201937",
          "tag_id": "7"
        }
      }]
    }, {
      "Location": {
        "id": "202305",
        "name": "Jugendmigrationsdienst Karlsruhe und Karlsruhe Land",
        "phone": "",
        "city": "Karlsruhe",
        "plz": "76135",
        "street": "Scheffelstra\u00dfe 11-17",
        "federal_state": "Baden-W\u00fcrttemberg",
        "longitude": "8.38193810000007",
        "latitude": "49.0095322"
      },
      "Tag": [{
        "name": "JMD",
        "LocationsTag": {
          "id": "177",
          "location_id": "202305",
          "tag_id": "5"
        }
      }, {
        "name": "Respekt Coaches",
        "LocationsTag": {
          "id": "178",
          "location_id": "202305",
          "tag_id": "7"
        }
      }]
    }, {
      "Location": {
        "id": "202404",
        "name": "Jugendmigrationsdienst Esslingen  ",
        "phone": "049 (0)711 35 24 92",
        "city": "Esslingen",
        "plz": "73728",
        "street": "Maillestr. 4",
        "federal_state": "Baden-W\u00fcrttemberg",
        "longitude": "9.309664",
        "latitude": "48.738009"
      },
      "Tag": [{
        "name": "JMD",
        "LocationsTag": {
          "id": "120",
          "location_id": "202404",
          "tag_id": "5"
        }
      }]
    }, {
      "Location": {
        "id": "202422",
        "name": "Jugendmigrationsdienst (JMD) Ehingen ",
        "phone": "049 (0)7391 54813",
        "city": "Ehingen",
        "plz": "89584",
        "street": "Talstr. 21",
        "federal_state": "Baden-W\u00fcrttemberg",
        "longitude": "9.7317695",
        "latitude": "48.2720944"
      },
      "Tag": [{
        "name": "JMD",
        "LocationsTag": {
          "id": "106",
          "location_id": "202422",
          "tag_id": "5"
        }
      }]
    }, {
      "Location": {
        "id": "202431",
        "name": "Jugendmigrationsdienst Dietenheim ",
        "phone": "049 (0)7347 4854",
        "city": "Dietenheim",
        "plz": "89165",
        "street": "K\u00f6nigstr. 63",
        "federal_state": "Baden-W\u00fcrttemberg",
        "longitude": "10.0698644",
        "latitude": "48.2111161"
      },
      "Tag": [{
        "name": "JMD",
        "LocationsTag": {
          "id": "98",
          "location_id": "202431",
          "tag_id": "5"
        }
      }]
    }, {
      "Location": {
        "id": "202603",
        "name": "Jugendhilfe & Migration Jugendmigrationsdienst M\u00fcnchen",
        "phone": "049 (0)89 600877-0",
        "city": "M\u00fcnchen",
        "plz": "80337",
        "street": "Lindwurmstr. 117",
        "federal_state": "Bayern",
        "longitude": "11.5546976",
        "latitude": "48.1277494"
      },
      "Tag": [{
        "name": "JMD",
        "LocationsTag": {
          "id": "228",
          "location_id": "202603",
          "tag_id": "5"
        }
      }]
    }, {
      "Location": {
        "id": "202604",
        "name": "Jugendmigrationsdienst F\u00fcrth und Landkreis F\u00fcrth",
        "phone": "0911 766108-101",
        "city": "F\u00fcrth",
        "plz": "90762",
        "street": "Mathildenstr. 40",
        "federal_state": "Bayern",
        "longitude": "10.9830195",
        "latitude": "49.4754736"
      },
      "Tag": [{
        "name": "JMD",
        "LocationsTag": {
          "id": "133",
          "location_id": "202604",
          "tag_id": "5"
        }
      }, {
        "name": "Respekt Coaches",
        "LocationsTag": {
          "id": "134",
          "location_id": "202604",
          "tag_id": "7"
        }
      }]
    }, {
      "Location": {
        "id": "202620",
        "name": "Jugendhilfe & Migration Jugendmigrationsdienst F\u00fcrstenfeldbruck",
        "phone": "049 08141 889 07 90",
        "city": "F\u00fcrstenfeldbruck",
        "plz": "82256",
        "street": "Emmeringer Stra\u00dfe 2a",
        "federal_state": "Bayern",
        "longitude": "11.250377",
        "latitude": "48.175702"
      },
      "Tag": [{
        "name": "JMD",
        "LocationsTag": {
          "id": "57",
          "location_id": "202620",
          "tag_id": "5"
        }
      }, {
        "name": "Respekt Coaches",
        "LocationsTag": {
          "id": "58",
          "location_id": "202620",
          "tag_id": "7"
        }
      }]
    }, {
      "Location": {
        "id": "202850",
        "name": "Jugendmigrationsdienst (JMD) Bautzen",
        "phone": "049 (0)3591 276761",
        "city": "Bautzen",
        "plz": "02625",
        "street": "Frederic-Joliot-Curie-Stra\u00dfe 68",
        "federal_state": "Sachsen",
        "longitude": "14.44858",
        "latitude": "51.19133"
      },
      "Tag": [{
        "name": "JMD",
        "LocationsTag": {
          "id": "79",
          "location_id": "202850",
          "tag_id": "5"
        }
      }, {
        "name": "Respekt Coaches",
        "LocationsTag": {
          "id": "80",
          "location_id": "202850",
          "tag_id": "7"
        }
      }]
    }, {
      "Location": {
        "id": "204221",
        "name": "IB Simmern ",
        "phone": "049 (0)6761 13040",
        "city": "Simmern",
        "plz": "55469",
        "street": "Gem\u00fcndener Str. 7",
        "federal_state": "Rheinland-Pfalz",
        "longitude": "7.5200772",
        "latitude": "49.978355"
      },
      "Tag": [{
        "name": "JMD",
        "LocationsTag": {
          "id": "262",
          "location_id": "204221",
          "tag_id": "5"
        }
      }]
    }, {
      "Location": {
        "id": "204302",
        "name": "Jugendmigrationsdienst Pirmasens ",
        "phone": "+49 6331 44594",
        "city": "Pirmasens",
        "plz": "66953",
        "street": "H\u00f6felsgasse 2",
        "federal_state": "Rheinland-Pfalz",
        "longitude": "7.6097908",
        "latitude": "49.2032702"
      },
      "Tag": [{
        "name": "JMD",
        "LocationsTag": {
          "id": "249",
          "location_id": "204302",
          "tag_id": "5"
        }
      }, {
        "name": "Respekt Coaches",
        "LocationsTag": {
          "id": "250",
          "location_id": "204302",
          "tag_id": "7"
        }
      }]
    }, {
      "Location": {
        "id": "204345",
        "name": "Jugendmigrationsdienst und Jugendzentrum Homburg ",
        "phone": "049 (0)6841 9935087",
        "city": "Homburg (Saar)",
        "plz": "66424",
        "street": "Karlstr. 25",
        "federal_state": "Saarland",
        "longitude": "7.3390190000000075",
        "latitude": "49.3258008"
      },
      "Tag": [{
        "name": "JMD",
        "LocationsTag": {
          "id": "159",
          "location_id": "204345",
          "tag_id": "5"
        }
      }, {
        "name": "Respekt Coaches",
        "LocationsTag": {
          "id": "160",
          "location_id": "204345",
          "tag_id": "7"
        }
      }]
    }, {
      "Location": {
        "id": "204357",
        "name": "JMD Kaiserslautern (Jugendmigrationsdienst) ",
        "phone": "049 (0)631 68108",
        "city": "Kaiserslautern",
        "plz": "67663",
        "street": "Kohlenhofstr. 10",
        "federal_state": "Rheinland-Pfalz",
        "longitude": "7.7758506",
        "latitude": "49.4370609"
      },
      "Tag": [{
        "name": "JMD",
        "LocationsTag": {
          "id": "169",
          "location_id": "204357",
          "tag_id": "5"
        }
      }, {
        "name": "Respekt Coaches",
        "LocationsTag": {
          "id": "170",
          "location_id": "204357",
          "tag_id": "7"
        }
      }]
    }, {
      "Location": {
        "id": "204368",
        "name": "JMD Frankenthal (Jugendmigrationsdienst) ",
        "phone": "049 (0)6233 3558912",
        "city": "Frankenthal",
        "plz": "67227",
        "street": "Mahlastr. 35",
        "federal_state": "Rheinland-Pfalz",
        "longitude": "8.3545975",
        "latitude": "49.5262554"
      },
      "Tag": [{
        "name": "JMD",
        "LocationsTag": {
          "id": "128",
          "location_id": "204368",
          "tag_id": "5"
        }
      }]
    }, {
      "Location": {
        "id": "204408",
        "name": "Bildungszentrum Gro\u00df-Gerau (BZ)",
        "phone": "049 (0)6152 18 762 11",
        "city": "Gro\u00df-Gerau",
        "plz": "64521",
        "street": "Darmst\u00e4dter Str. 18 a",
        "federal_state": "Hessen",
        "longitude": "8.484091",
        "latitude": "49.9202378"
      },
      "Tag": [{
        "name": "JMD",
        "LocationsTag": {
          "id": "142",
          "location_id": "204408",
          "tag_id": "5"
        }
      }]
    }, {
      "Location": {
        "id": "204412",
        "name": "Bildungszentrum Hanau ",
        "phone": "049 (0)6181 92308-0",
        "city": "Hanau",
        "plz": "63450",
        "street": "Marktstr. 3",
        "federal_state": "Hessen",
        "longitude": "8.9173248",
        "latitude": "50.135536"
      },
      "Tag": [{
        "name": "JMD",
        "LocationsTag": {
          "id": "149",
          "location_id": "204412",
          "tag_id": "5"
        }
      }, {
        "name": "Respekt Coaches",
        "LocationsTag": {
          "id": "150",
          "location_id": "204412",
          "tag_id": "7"
        }
      }]
    }, {
      "Location": {
        "id": "204614",
        "name": "Jugendmigrationsdienst Kassel ",
        "phone": "049 (0)561 574637-30",
        "city": "Kassel",
        "plz": "34117",
        "street": "K\u00f6nigsplatz 57",
        "federal_state": "Hessen",
        "longitude": "9.4971435",
        "latitude": "51.3160614"
      },
      "Tag": [{
        "name": "JMD",
        "LocationsTag": {
          "id": "181",
          "location_id": "204614",
          "tag_id": "5"
        }
      }, {
        "name": "Respekt Coaches",
        "LocationsTag": {
          "id": "182",
          "location_id": "204614",
          "tag_id": "7"
        }
      }]
    }, {
      "Location": {
        "id": "204639",
        "name": "Jugendmigrationsdienst Idstein ",
        "phone": "049 (0)6126 1884",
        "city": "Idstein",
        "plz": "65510",
        "street": "Grunerstr. 58",
        "federal_state": "Hessen",
        "longitude": "8.2679443",
        "latitude": "50.2137083"
      },
      "Tag": [{
        "name": "JMD",
        "LocationsTag": {
          "id": "166",
          "location_id": "204639",
          "tag_id": "5"
        }
      }]
    }, {
      "Location": {
        "id": "204673",
        "name": "Internationaler Bund Lollar ",
        "phone": "049 (0)6406 909514",
        "city": "Lollar",
        "plz": "35457",
        "street": "Schur 18",
        "federal_state": "Hessen",
        "longitude": "8.70501",
        "latitude": "50.64689"
      },
      "Tag": [{
        "name": "JMD",
        "LocationsTag": {
          "id": "206",
          "location_id": "204673",
          "tag_id": "5"
        }
      }]
    }, {
      "Location": {
        "id": "205514",
        "name": "Jugendmigrationsdienst Wuppertal ",
        "phone": "049 (0)202 49595 0",
        "city": "Wuppertal",
        "plz": "42117",
        "street": "Friedrich-Ebert-Stra\u00dfe 111",
        "federal_state": "Nordrhein-Westfalen",
        "longitude": "7.131985",
        "latitude": "51.2504535"
      },
      "Tag": [{
        "name": "JMD",
        "LocationsTag": {
          "id": "296",
          "location_id": "205514",
          "tag_id": "5"
        }
      }, {
        "name": "JMD-iQ",
        "LocationsTag": {
          "id": "297",
          "location_id": "205514",
          "tag_id": "6"
        }
      }, {
        "name": "Respekt Coaches",
        "LocationsTag": {
          "id": "298",
          "location_id": "205514",
          "tag_id": "7"
        }
      }]
    }, {
      "Location": {
        "id": "205542",
        "name": "Jugendmigrationsdienst Solingen ",
        "phone": "049 (0)212 38212956",
        "city": "Solingen",
        "plz": "42651",
        "street": "Am Neumarkt 50-50a",
        "federal_state": "Nordrhein-Westfalen",
        "longitude": "7.07826",
        "latitude": "51.16881"
      },
      "Tag": [{
        "name": "JMD",
        "LocationsTag": {
          "id": "309",
          "location_id": "205542",
          "tag_id": "5"
        }
      }, {
        "name": "Respekt Coaches",
        "LocationsTag": {
          "id": "310",
          "location_id": "205542",
          "tag_id": "7"
        }
      }]
    }, {
      "Location": {
        "id": "205554",
        "name": "Internationaler Bund Velbert ",
        "phone": "(Sprachinstitut) 02051 259342, (Jugendmigrationsdienst) 02051 311185",
        "city": "Velbert",
        "plz": "42551",
        "street": "Poststr. 17 b",
        "federal_state": "Nordrhein-Westfalen",
        "longitude": "7.0420937",
        "latitude": "51.3401951"
      },
      "Tag": [{
        "name": "JMD",
        "LocationsTag": {
          "id": "276",
          "location_id": "205554",
          "tag_id": "5"
        }
      }]
    }, {
      "Location": {
        "id": "205583",
        "name": "Jugendmigrationsdienst Olpe ",
        "phone": "049 (0)2722 632595",
        "city": "Attendorn",
        "plz": "57439",
        "street": "Hohler Weg 1",
        "federal_state": "Nordrhein-Westfalen",
        "longitude": "7.8995984",
        "latitude": "51.1265471"
      },
      "Tag": [{
        "name": "JMD",
        "LocationsTag": {
          "id": "234",
          "location_id": "205583",
          "tag_id": "5"
        }
      }]
    }, {
      "Location": {
        "id": "205587",
        "name": "Jugendmigrationsdienst Viersen ",
        "phone": "049 (0)2162 1029570",
        "city": "Viersen",
        "plz": "41747",
        "street": "S\u00fcchtelner Str. 5 - 7",
        "federal_state": "Nordrhein-Westfalen",
        "longitude": "6.3876948",
        "latitude": "51.26053"
      },
      "Tag": [{
        "name": "JMD",
        "LocationsTag": {
          "id": "279",
          "location_id": "205587",
          "tag_id": "5"
        }
      }, {
        "name": "Respekt Coaches",
        "LocationsTag": {
          "id": "280",
          "location_id": "205587",
          "tag_id": "7"
        }
      }]
    }, {
      "Location": {
        "id": "206521",
        "name": "Betriebsst\u00e4tte G\u00f6ttingen",
        "phone": "049 (0)551 96232",
        "city": "G\u00f6ttingen",
        "plz": "37081",
        "street": "Greitweg 3",
        "federal_state": "Niedersachsen",
        "longitude": "9.896983",
        "latitude": "51.5362982"
      },
      "Tag": [{
        "name": "JMD",
        "LocationsTag": {
          "id": "139",
          "location_id": "206521",
          "tag_id": "5"
        }
      }, {
        "name": "Respekt Coaches",
        "LocationsTag": {
          "id": "140",
          "location_id": "206521",
          "tag_id": "7"
        }
      }]
    }, {
      "Location": {
        "id": "207243",
        "name": "Jugendmigrationsdienst Neuk\u00f6lln",
        "phone": "030 60975772",
        "city": "Berlin",
        "plz": "12051",
        "street": "Glasower Stra\u00dfe 18",
        "federal_state": "Berlin",
        "longitude": "13.434339",
        "latitude": "52.4641115"
      },
      "Tag": [{
        "name": "JMD",
        "LocationsTag": {
          "id": "87",
          "location_id": "207243",
          "tag_id": "5"
        }
      }, {
        "name": "Respekt Coaches",
        "LocationsTag": {
          "id": "88",
          "location_id": "207243",
          "tag_id": "7"
        }
      }]
    }, {
      "Location": {
        "id": "207543",
        "name": "Jugendmigrationsdienst Frankfurt (Oder)",
        "phone": "0335 2849680",
        "city": "Frankfurt (Oder)",
        "plz": "15230",
        "street": "Gro\u00dfe Scharrnstra\u00dfe 18",
        "federal_state": "Brandenburg",
        "longitude": "14.5523977",
        "latitude": "52.3456925"
      },
      "Tag": [{
        "name": "JMD",
        "LocationsTag": {
          "id": "130",
          "location_id": "207543",
          "tag_id": "5"
        }
      }]
    }, {
      "Location": {
        "id": "207544",
        "name": "Jugendmigrationsdienst Potsdam-Mittelmark  ",
        "phone": "033841 45954",
        "city": "Bad Belzig",
        "plz": "14806",
        "street": "Stra\u00dfe der Einheit 13",
        "federal_state": "Brandenburg",
        "longitude": "12.5878336",
        "latitude": "52.1409506"
      },
      "Tag": [{
        "name": "JMD",
        "LocationsTag": {
          "id": "337",
          "location_id": "207544",
          "tag_id": "5"
        }
      }, {
        "name": "Respekt Coaches",
        "LocationsTag": {
          "id": "338",
          "location_id": "207544",
          "tag_id": "7"
        }
      }]
    }, {
      "Location": {
        "id": "207601",
        "name": "Jugendmigrationsdienst IB Halle",
        "phone": "049 (0)345 8046017",
        "city": "Halle (Saale)",
        "plz": "06122",
        "street": "Helmeweg 4",
        "federal_state": "Sachsen-Anhalt",
        "longitude": "11.9426084",
        "latitude": "51.4840976"
      },
      "Tag": [{
        "name": "JMD",
        "LocationsTag": {
          "id": "145",
          "location_id": "207601",
          "tag_id": "5"
        }
      }, {
        "name": "Respekt Coaches",
        "LocationsTag": {
          "id": "146",
          "location_id": "207601",
          "tag_id": "7"
        }
      }]
    }, {
      "Location": {
        "id": "208508",
        "name": "Jugendmigrationsdienst Suhl  ",
        "phone": "049 (0)3681 87926400",
        "city": "Suhl",
        "plz": "98528",
        "street": "Kornbergstr. 7",
        "federal_state": "Th\u00fcringen",
        "longitude": "10.7007947",
        "latitude": "50.6261468"
      },
      "Tag": [{
        "name": "JMD",
        "LocationsTag": {
          "id": "273",
          "location_id": "208508",
          "tag_id": "5"
        }
      }, {
        "name": "Respekt Coaches",
        "LocationsTag": {
          "id": "274",
          "location_id": "208508",
          "tag_id": "7"
        }
      }]
    }, {
      "Location": {
        "id": "209853",
        "name": "Jugendmigrationsdienst Kamp-Lintfort",
        "phone": "049 (0)2831 9030388",
        "city": "Kamp-Lintfort",
        "plz": "47475",
        "street": "Vinnstra\u00dfe 40",
        "federal_state": "Nordrhein-Westfalen",
        "longitude": "6.5550901000000295",
        "latitude": "51.4883603"
      },
      "Tag": [{
        "name": "JMD",
        "LocationsTag": {
          "id": "173",
          "location_id": "209853",
          "tag_id": "5"
        }
      }, {
        "name": "Respekt Coaches",
        "LocationsTag": {
          "id": "174",
          "location_id": "209853",
          "tag_id": "7"
        }
      }]
    }, {
      "Location": {
        "id": "209856",
        "name": "Jugendmigrationsdienst Kleve ",
        "phone": "049 (0)2821 9746493",
        "city": "Kleve",
        "plz": "47533",
        "street": "Hafenstr. 14",
        "federal_state": "Nordrhein-Westfalen",
        "longitude": "6.13713000000007",
        "latitude": "51.80024"
      },
      "Tag": [{
        "name": "JMD",
        "LocationsTag": {
          "id": "191",
          "location_id": "209856",
          "tag_id": "5"
        }
      }, {
        "name": "Respekt Coaches",
        "LocationsTag": {
          "id": "192",
          "location_id": "209856",
          "tag_id": "7"
        }
      }]
    }, {
      "Location": {
        "id": "209870",
        "name": "Jugendmigrationsdienst K\u00f6ln ",
        "phone": "049 (0)221 85 11 79",
        "city": "K\u00f6ln",
        "plz": "51107",
        "street": "Kalker Hauptstr. 127",
        "federal_state": "Nordrhein-Westfalen",
        "longitude": "7.00151",
        "latitude": "50.9377364"
      },
      "Tag": [{
        "name": "JMD",
        "LocationsTag": {
          "id": "184",
          "location_id": "209870",
          "tag_id": "5"
        }
      }]
    }, {
      "Location": {
        "id": "209994",
        "name": "*Internationaler Bund Mannheim* Bildung & Soziales",
        "phone": "+49 621 8198-0",
        "city": "Mannheim",
        "plz": "68163",
        "street": "Neckarauer Stra\u00dfe 106-116",
        "federal_state": "Baden-W\u00fcrttemberg",
        "longitude": "8.4882378",
        "latitude": "49.4637351"
      },
      "Tag": [{
        "name": "JMD",
        "LocationsTag": {
          "id": "217",
          "location_id": "209994",
          "tag_id": "5"
        }
      }, {
        "name": "Respekt Coaches",
        "LocationsTag": {
          "id": "218",
          "location_id": "209994",
          "tag_id": "7"
        }
      }]
    }, {
      "Location": {
        "id": "210034",
        "name": "Jugendmigrationsdienst (JMD) Brandenburg ",
        "phone": "03381 739857",
        "city": "Brandenburg a. d. Havel",
        "plz": "14772",
        "street": "Walther-Ausl\u00e4nder-Str. 1",
        "federal_state": "Brandenburg",
        "longitude": "12.5223137",
        "latitude": "52.4348953"
      },
      "Tag": [{
        "name": "JMD",
        "LocationsTag": {
          "id": "320",
          "location_id": "210034",
          "tag_id": "5"
        }
      }]
    }, {
      "Location": {
        "id": "210142",
        "name": "Jugendmigrationsdienst Sinsheim ",
        "phone": "049 (0)7261 971366",
        "city": "Sinsheim",
        "plz": "74889",
        "street": "Neulandstr. 11",
        "federal_state": "Baden-W\u00fcrttemberg",
        "longitude": "8.880064",
        "latitude": "49.2477569"
      },
      "Tag": [{
        "name": "JMD",
        "LocationsTag": {
          "id": "265",
          "location_id": "210142",
          "tag_id": "5"
        }
      }, {
        "name": "Respekt Coaches",
        "LocationsTag": {
          "id": "266",
          "location_id": "210142",
          "tag_id": "7"
        }
      }]
    }, {
      "Location": {
        "id": "210217",
        "name": "Jugendmigrationsdienst Rhein Kreis Neuss ",
        "phone": "049 (0)175  727 49 25",
        "city": "Neuss",
        "plz": "41462",
        "street": "Fesserstr. 21 ",
        "federal_state": "Nordrhein-Westfalen",
        "longitude": "6.6785219",
        "latitude": "51.2118495"
      },
      "Tag": [{
        "name": "JMD",
        "LocationsTag": {
          "id": "256",
          "location_id": "210217",
          "tag_id": "5"
        }
      }]
    }, {
      "Location": {
        "id": "210276",
        "name": "Jugendmigrationsdienst (JMD) Darmstadt",
        "phone": "049 (0)6151 9715411",
        "city": "Darmstadt",
        "plz": "64289",
        "street": "Marburger Str. 2",
        "federal_state": "Hessen",
        "longitude": "8.653547",
        "latitude": "49.887315"
      },
      "Tag": [{
        "name": "JMD",
        "LocationsTag": {
          "id": "95",
          "location_id": "210276",
          "tag_id": "5"
        }
      }, {
        "name": "Respekt Coaches",
        "LocationsTag": {
          "id": "96",
          "location_id": "210276",
          "tag_id": "7"
        }
      }]
    }, {
      "Location": {
        "id": "210306",
        "name": "IB Marburg ",
        "phone": "049 (0)6421 681889",
        "city": "Marburg",
        "plz": "35037",
        "street": "Gutenbergstra\u00dfe 19",
        "federal_state": "Hessen",
        "longitude": "8.769059999999968",
        "latitude": "50.8052717"
      },
      "Tag": [{
        "name": "JMD",
        "LocationsTag": {
          "id": "221",
          "location_id": "210306",
          "tag_id": "5"
        }
      }, {
        "name": "Respekt Coaches",
        "LocationsTag": {
          "id": "222",
          "location_id": "210306",
          "tag_id": "7"
        }
      }]
    }, {
      "Location": {
        "id": "210309",
        "name": "Jugendmigrationsdienst Offenbach ",
        "phone": "049 (0)69 80 90 48 79",
        "city": "Offenbach",
        "plz": "63065",
        "street": "Bleichstr. 16",
        "federal_state": "Hessen",
        "longitude": "8.7640499",
        "latitude": "50.1025064"
      },
      "Tag": [{
        "name": "JMD",
        "LocationsTag": {
          "id": "231",
          "location_id": "210309",
          "tag_id": "5"
        }
      }, {
        "name": "Respekt Coaches",
        "LocationsTag": {
          "id": "232",
          "location_id": "210309",
          "tag_id": "7"
        }
      }]
    }, {
      "Location": {
        "id": "210317",
        "name": "JMD Idar-Oberstein (Jugendmigrationsdienst)",
        "phone": "049 (0)6781 263308",
        "city": "Idar-Oberstein",
        "plz": "55743",
        "street": "Nahestr. 48",
        "federal_state": "Rheinland-Pfalz",
        "longitude": "7.317869",
        "latitude": "49.6991198"
      },
      "Tag": [{
        "name": "JMD",
        "LocationsTag": {
          "id": "163",
          "location_id": "210317",
          "tag_id": "5"
        }
      }, {
        "name": "Respekt Coaches",
        "LocationsTag": {
          "id": "164",
          "location_id": "210317",
          "tag_id": "7"
        }
      }]
    }, {
      "Location": {
        "id": "210337",
        "name": "Jugendmigrationsdienst Potsdam ",
        "phone": "0331 2370976",
        "city": "Potsdam",
        "plz": "14467",
        "street": "Charlottenstra\u00dfe 30",
        "federal_state": "Brandenburg",
        "longitude": "13.0553",
        "latitude": "52.39936"
      },
      "Tag": [{
        "name": "JMD",
        "LocationsTag": {
          "id": "328",
          "location_id": "210337",
          "tag_id": "5"
        }
      }, {
        "name": "JMD-iQ",
        "LocationsTag": {
          "id": "329",
          "location_id": "210337",
          "tag_id": "6"
        }
      }, {
        "name": "Respekt Coaches",
        "LocationsTag": {
          "id": "330",
          "location_id": "210337",
          "tag_id": "7"
        }
      }]
    }, {
      "Location": {
        "id": "210362",
        "name": "Jugendmigrationsdienst Erfurt ",
        "phone": "049 (0)361 5983113",
        "city": "Erfurt",
        "plz": "99085",
        "street": "Hallesche Stra\u00dfe 20a",
        "federal_state": "Th\u00fcringen",
        "longitude": "11.049154",
        "latitude": "50.98159"
      },
      "Tag": [{
        "name": "JMD",
        "LocationsTag": {
          "id": "111",
          "location_id": "210362",
          "tag_id": "5"
        }
      }, {
        "name": "Respekt Coaches",
        "LocationsTag": {
          "id": "112",
          "location_id": "210362",
          "tag_id": "7"
        }
      }]
    }, {
      "Location": {
        "id": "210449",
        "name": "Jugendmigrationsdienst (JMD) L\u00f6bau ",
        "phone": "049 (0)3585 4137375",
        "city": "L\u00f6bau",
        "plz": "02708",
        "street": "August-F\u00f6rster-Str. 15",
        "federal_state": "Sachsen",
        "longitude": "14.66808",
        "latitude": "51.08326"
      },
      "Tag": [{
        "name": "JMD",
        "LocationsTag": {
          "id": "104",
          "location_id": "210449",
          "tag_id": "5"
        }
      }]
    }, {
      "Location": {
        "id": "210477",
        "name": "Jugendmigrationsdienst (JMD) Hochtaunuskreis \/ Bad Homburg",
        "phone": "049 (0)6172 137988-0",
        "city": "Friedrichsdorf",
        "plz": "61381",
        "street": "Bahnstr. 29",
        "federal_state": "Hessen",
        "longitude": "8.64232",
        "latitude": "50.25305"
      },
      "Tag": [{
        "name": "JMD",
        "LocationsTag": {
          "id": "155",
          "location_id": "210477",
          "tag_id": "5"
        }
      }, {
        "name": "Respekt Coaches",
        "LocationsTag": {
          "id": "156",
          "location_id": "210477",
          "tag_id": "7"
        }
      }]
    }, {
      "Location": {
        "id": "210488",
        "name": "Jugendberatungsstelle und Jugendmigrationsdienst Dinslaken",
        "phone": "049 (0)2064 6219984",
        "city": "Dinslaken",
        "plz": "46537",
        "street": "Hauerstr. 14",
        "federal_state": "Nordrhein-Westfalen",
        "longitude": "6.75807",
        "latitude": "51.58538"
      },
      "Tag": [{
        "name": "JMD",
        "LocationsTag": {
          "id": "101",
          "location_id": "210488",
          "tag_id": "5"
        }
      }, {
        "name": "Respekt Coaches",
        "LocationsTag": {
          "id": "102",
          "location_id": "210488",
          "tag_id": "7"
        }
      }]
    }, {
      "Location": {
        "id": "210511",
        "name": "Jugendmigrationsdienst Mainz ",
        "phone": "049 (0)6131 62 78 212",
        "city": "Mainz",
        "plz": "55116",
        "street": "Kaiserstr. 17",
        "federal_state": "Rheinland-Pfalz",
        "longitude": "8.2764405",
        "latitude": "49.999997"
      },
      "Tag": [{
        "name": "JMD",
        "LocationsTag": {
          "id": "213",
          "location_id": "210511",
          "tag_id": "5"
        }
      }, {
        "name": "Respekt Coaches",
        "LocationsTag": {
          "id": "214",
          "location_id": "210511",
          "tag_id": "7"
        }
      }]
    }, {
      "Location": {
        "id": "210520",
        "name": "Jugendmigrationsdienst Gotha",
        "phone": "03621 223048",
        "city": "Gotha",
        "plz": "99867",
        "street": "Bertha-Schneyer-Stra\u00dfe 10",
        "federal_state": "Th\u00fcringen",
        "longitude": "10.7322455999999",
        "latitude": "50.9438901"
      },
      "Tag": [{
        "name": "JMD",
        "LocationsTag": {
          "id": "126",
          "location_id": "210520",
          "tag_id": "5"
        }
      }]
    }, {
      "Location": {
        "id": "210620",
        "name": "Jugendmigrationsdienst Bad Hersfeld ",
        "phone": "049 (0)6621 75944",
        "city": "Bad Hersfeld",
        "plz": "36251",
        "street": "Benno-Schilde-Str. 6",
        "federal_state": "Hessen",
        "longitude": "9.70877759999996",
        "latitude": "50.8691435"
      },
      "Tag": [{
        "name": "JMD",
        "LocationsTag": {
          "id": "70",
          "location_id": "210620",
          "tag_id": "5"
        }
      }]
    }, {
      "Location": {
        "id": "210635",
        "name": "Jugendmigrationsdienst Leipzig",
        "phone": "049 (0)341 9030112",
        "city": "Leipzig",
        "plz": "04129",
        "street": "Gr\u00e4festra\u00dfe 23",
        "federal_state": "Sachsen",
        "longitude": "12.3834297999999",
        "latitude": "51.3724419"
      },
      "Tag": [{
        "name": "JMD",
        "LocationsTag": {
          "id": "203",
          "location_id": "210635",
          "tag_id": "5"
        }
      }, {
        "name": "Respekt Coaches",
        "LocationsTag": {
          "id": "204",
          "location_id": "210635",
          "tag_id": "7"
        }
      }]
    }, {
      "Location": {
        "id": "210649",
        "name": "Jugendmigrationsdienst Moers ",
        "phone": "049 (0)2841 908383",
        "city": "Moers",
        "plz": "47441",
        "street": "Augustastr. 6",
        "federal_state": "Nordrhein-Westfalen",
        "longitude": "6.634519",
        "latitude": "51.4496357"
      },
      "Tag": [{
        "name": "JMD",
        "LocationsTag": {
          "id": "225",
          "location_id": "210649",
          "tag_id": "5"
        }
      }, {
        "name": "Respekt Coaches",
        "LocationsTag": {
          "id": "226",
          "location_id": "210649",
          "tag_id": "7"
        }
      }]
    }, {
      "Location": {
        "id": "210699",
        "name": "Bildung und Soziales Heidelberg",
        "phone": "049 (0)6221 316950",
        "city": "Heidelberg",
        "plz": "69115",
        "street": "Belfortstr. 2",
        "federal_state": "Baden-W\u00fcrttemberg",
        "longitude": "8.67907",
        "latitude": "49.4036"
      },
      "Tag": [{
        "name": "JMD",
        "LocationsTag": {
          "id": "152",
          "location_id": "210699",
          "tag_id": "5"
        }
      }]
    }, {
      "Location": {
        "id": "210780",
        "name": "Jugendmigrationsdienst Wetzlar ",
        "phone": "049 (0)6441 4459-0",
        "city": "Wetzlar",
        "plz": "35578",
        "street": "Bergstra\u00dfe 54",
        "federal_state": "Hessen",
        "longitude": "8.5102072",
        "latitude": "50.5520887"
      },
      "Tag": [{
        "name": "JMD",
        "LocationsTag": {
          "id": "288",
          "location_id": "210780",
          "tag_id": "5"
        }
      }]
    }, {
      "Location": {
        "id": "210816",
        "name": "Jugendmigrationsdienst (JMD) Pforzheim und Enzkreis",
        "phone": "049 (0)7231 3861-901",
        "city": "Pforzheim",
        "plz": "75173",
        "street": "Bleichstr. 64",
        "federal_state": "Baden-W\u00fcrttemberg",
        "longitude": "8.69539",
        "latitude": "48.8833"
      },
      "Tag": [{
        "name": "JMD",
        "LocationsTag": {
          "id": "241",
          "location_id": "210816",
          "tag_id": "5"
        }
      }, {
        "name": "Respekt Coaches",
        "LocationsTag": {
          "id": "242",
          "location_id": "210816",
          "tag_id": "7"
        }
      }]
    }, {
      "Location": {
        "id": "210833",
        "name": "Jugendmigrationsdienst Wiesbaden ",
        "phone": "049 (0)611 409080",
        "city": "Wiesbaden",
        "plz": "65185",
        "street": "Kaiser-Friedrich-Ring 88",
        "federal_state": "Hessen",
        "longitude": "8.2392634",
        "latitude": "50.0716601"
      },
      "Tag": [{
        "name": "JMD",
        "LocationsTag": {
          "id": "291",
          "location_id": "210833",
          "tag_id": "5"
        }
      }, {
        "name": "Respekt Coaches",
        "LocationsTag": {
          "id": "292",
          "location_id": "210833",
          "tag_id": "7"
        }
      }]
    }, {
      "Location": {
        "id": "210839",
        "name": "Jugendmigrationsdienst Siegen",
        "phone": "049 (0)271 4853523",
        "city": "Siegen",
        "plz": "57078",
        "street": "Rathausstr. 3",
        "federal_state": "Nordrhein-Westfalen",
        "longitude": "8.01142",
        "latitude": "50.91424"
      },
      "Tag": [{
        "name": "JMD",
        "LocationsTag": {
          "id": "259",
          "location_id": "210839",
          "tag_id": "5"
        }
      }, {
        "name": "Respekt Coaches",
        "LocationsTag": {
          "id": "260",
          "location_id": "210839",
          "tag_id": "7"
        }
      }]
    }, {
      "Location": {
        "id": "210881",
        "name": "Jugendmigrationsdienst Marzahn ",
        "phone": "030 5434203",
        "city": "Berlin",
        "plz": "12681",
        "street": "Allee der Kosmonauten 79",
        "federal_state": "Berlin",
        "longitude": "13.5454738",
        "latitude": "52.5262986"
      },
      "Tag": [{
        "name": "JMD",
        "LocationsTag": {
          "id": "83",
          "location_id": "210881",
          "tag_id": "5"
        }
      }, {
        "name": "Respekt Coaches",
        "LocationsTag": {
          "id": "84",
          "location_id": "210881",
          "tag_id": "7"
        }
      }]
    }, {
      "Location": {
        "id": "211212",
        "name": "Bildungszentrum Balingen ",
        "phone": "FD: 049 (0)7433 90 125-10 und JMD: -20",
        "city": "Balingen",
        "plz": "72336",
        "street": "Adlerstr. 3",
        "federal_state": "Baden-W\u00fcrttemberg",
        "longitude": "8.8503522",
        "latitude": "48.2729584"
      },
      "Tag": [{
        "name": "JMD",
        "LocationsTag": {
          "id": "76",
          "location_id": "211212",
          "tag_id": "5"
        }
      }]
    }, {
      "Location": {
        "id": "211347",
        "name": "Jugendmigrationsdienst (JMD) Langen",
        "phone": "0049 (0)6103  20556-0",
        "city": "Langen",
        "plz": "63225",
        "street": "Robert-Bosch-Str. 24",
        "federal_state": "Hessen",
        "longitude": "8.6550561",
        "latitude": "50.0023491"
      },
      "Tag": [{
        "name": "JMD",
        "LocationsTag": {
          "id": "199",
          "location_id": "211347",
          "tag_id": "5"
        }
      }, {
        "name": "Respekt Coaches",
        "LocationsTag": {
          "id": "200",
          "location_id": "211347",
          "tag_id": "7"
        }
      }]
    }, {
      "Location": {
        "id": "211476",
        "name": "Jugendhilfe & Migration Jugendmigrationsdienst Dachau",
        "phone": "08131-272 00 37Mobil: 0176-586 276 38",
        "city": "Dachau",
        "plz": "85221",
        "street": "Friedenstra\u00dfe 51",
        "federal_state": "Bayern",
        "longitude": "11.4492617",
        "latitude": "48.2634962"
      },
      "Tag": [{
        "name": "JMD",
        "LocationsTag": {
          "id": "53",
          "location_id": "211476",
          "tag_id": "5"
        }
      }, {
        "name": "Respekt Coaches",
        "LocationsTag": {
          "id": "54",
          "location_id": "211476",
          "tag_id": "7"
        }
      }]
    }, {
      "Location": {
        "id": "211564",
        "name": "Jugendmigrationsdienst Waldeck-Frankenberg",
        "phone": "+49 6451 7186964",
        "city": "Frankenberg (Eder)",
        "plz": "35066",
        "street": "Geismarer Str. 11",
        "federal_state": "Hessen",
        "longitude": "8.803577599999926",
        "latitude": "51.0605239"
      },
      "Tag": [{
        "name": "JMD",
        "LocationsTag": {
          "id": "282",
          "location_id": "211564",
          "tag_id": "5"
        }
      }]
    }, {
      "Location": {
        "id": "211588",
        "name": "Jugendmigrationsdienst (JMD) Magdeburg",
        "phone": "0391 7391089",
        "city": "Magdeburg",
        "plz": "39106",
        "street": "Walther-Rathenau-Stra\u00dfe 30",
        "federal_state": "Sachsen-Anhalt",
        "longitude": "11.6383812",
        "latitude": "52.1393723"
      },
      "Tag": [{
        "name": "JMD",
        "LocationsTag": {
          "id": "209",
          "location_id": "211588",
          "tag_id": "5"
        }
      }, {
        "name": "Respekt Coaches",
        "LocationsTag": {
          "id": "210",
          "location_id": "211588",
          "tag_id": "7"
        }
      }]
    }, {
      "Location": {
        "id": "211600",
        "name": "Jugendmigrationsdienst Aschersleben",
        "phone": "",
        "city": "Aschersleben",
        "plz": "06449",
        "street": "Vogelgesang 35",
        "federal_state": "Sachsen-Anhalt",
        "longitude": "11.442207000000053",
        "latitude": "51.7565214"
      },
      "Tag": [{
        "name": "JMD",
        "LocationsTag": {
          "id": "67",
          "location_id": "211600",
          "tag_id": "5"
        }
      }, {
        "name": "Respekt Coaches",
        "LocationsTag": {
          "id": "68",
          "location_id": "211600",
          "tag_id": "7"
        }
      }]
    }, {
      "Location": {
        "id": "211604",
        "name": "Jugendmigrationsdienst Wernigerode",
        "phone": "03943\/625481",
        "city": "Wernigerode",
        "plz": "38855",
        "street": "Feldstra\u00dfe 7A",
        "federal_state": "Sachsen-Anhalt",
        "longitude": "10.7863701",
        "latitude": "51.84002"
      },
      "Tag": [{
        "name": "JMD",
        "LocationsTag": {
          "id": "285",
          "location_id": "211604",
          "tag_id": "5"
        }
      }, {
        "name": "JMD-iQ",
        "LocationsTag": {
          "id": "286",
          "location_id": "211604",
          "tag_id": "6"
        }
      }]
    }, {
      "Location": {
        "id": "211629",
        "name": "Jugendmigrationsdienst Burgenlandkreis",
        "phone": "+493445-230413",
        "city": "Naumburg (Saale)",
        "plz": "06618",
        "street": "Friedrich-Nietzsche-Stra\u00dfe 1",
        "federal_state": "Sachsen-Anhalt",
        "longitude": "11.8102633",
        "latitude": "51.1587053"
      },
      "Tag": [{
        "name": "JMD",
        "LocationsTag": {
          "id": "91",
          "location_id": "211629",
          "tag_id": "5"
        }
      }, {
        "name": "Respekt Coaches",
        "LocationsTag": {
          "id": "92",
          "location_id": "211629",
          "tag_id": "7"
        }
      }]
    }, {
      "Location": {
        "id": "211713",
        "name": "Jugendmigrationsdienst Erlangen und Landkreis Erlangen-H\u00f6chstadt",
        "phone": "+49 9131933040",
        "city": "Erlangen",
        "plz": "91058",
        "street": "F\u00fcrther Str. 34",
        "federal_state": "Bayern",
        "longitude": "10.9852726",
        "latitude": "49.5731168"
      },
      "Tag": [{
        "name": "JMD",
        "LocationsTag": {
          "id": "123",
          "location_id": "211713",
          "tag_id": "5"
        }
      }, {
        "name": "Respekt Coaches",
        "LocationsTag": {
          "id": "124",
          "location_id": "211713",
          "tag_id": "7"
        }
      }]
    }, {
      "Location": {
        "id": "211807",
        "name": "Jugendmigrationsdienst Havelland",
        "phone": "03385 5201834",
        "city": "Rathenow",
        "plz": "14712",
        "street": "Friedrich-Ebert-Ring 63",
        "federal_state": "Brandenburg",
        "longitude": "12.3539709",
        "latitude": "52.6026047"
      },
      "Tag": [{
        "name": "JMD",
        "LocationsTag": {
          "id": "323",
          "location_id": "211807",
          "tag_id": "5"
        }
      }, {
        "name": "Respekt Coaches",
        "LocationsTag": {
          "id": "324",
          "location_id": "211807",
          "tag_id": "7"
        }
      }]
    }, {
      "Location": {
        "id": "211815",
        "name": "Jugendmigrationsdienst Kreis Segeberg",
        "phone": "+49 40 55403181",
        "city": "Norderstedt",
        "plz": "22844",
        "street": "Ulzburger Str. 468",
        "federal_state": "Schleswig-Holstein",
        "longitude": "9.9971901",
        "latitude": "53.7317083"
      },
      "Tag": [{
        "name": "JMD",
        "LocationsTag": {
          "id": "195",
          "location_id": "211815",
          "tag_id": "5"
        }
      }, {
        "name": "Respekt Coaches",
        "LocationsTag": {
          "id": "196",
          "location_id": "211815",
          "tag_id": "7"
        }
      }]
	}
  ]
}